$GPGGA,223834,3214.15198,N,11057.22297,W,1,04,1.0,740.95575,M,000.0,M,,*6F
$GPRMC,223834,A,3214.15198,N,11057.22297,W,000.0,000.0,301013,,,A*60
$GPGGA,223835,3214.15179,N,11057.24549,W,1,04,1.0,778,M,000.0,M,,*7D
$GPRMC,223835,A,3214.15179,N,11057.24549,W,000.0,000.0,301013,,,A*6C
$GPGGA,223836,3214.14503,N,11057.23069,W,1,04,1.0,749,M,000.0,M,,*74
$GPRMC,223836,A,3214.14503,N,11057.23069,W,000.0,000.0,301013,,,A*67
$GPGGA,223838,3214.14519,N,11057.23162,W,1,04,1.0,750,M,000.0,M,,*73
$GPRMC,223838,A,3214.14519,N,11057.23162,W,000.0,000.0,301013,,,A*68
$GPGGA,223839,3214.14544,N,11057.23269,W,1,04,1.0,749,M,000.0,M,,*7A
$GPRMC,223839,A,3214.14544,N,11057.23269,W,000.0,000.0,301013,,,A*69
$GPGGA,223840,3214.14571,N,11057.23416,W,1,04,1.0,749,M,000.0,M,,*7C
$GPRMC,223840,A,3214.14571,N,11057.23416,W,000.0,000.0,301013,,,A*6F
$GPGGA,223841,3214.14549,N,11057.23562,W,1,04,1.0,745,M,000.0,M,,*78
$GPRMC,223841,A,3214.14549,N,11057.23562,W,000.0,000.0,301013,,,A*67
$GPGGA,223842,3214.1453,N,11057.23627,W,1,04,1.0,745,M,000.0,M,,*47
$GPRMC,223842,A,3214.1453,N,11057.23627,W,000.0,000.0,301013,,,A*58
$GPGGA,223844,3214.14511,N,11057.23672,W,1,04,1.0,744,M,000.0,M,,*73
$GPRMC,223844,A,3214.14511,N,11057.23672,W,000.0,000.0,301013,,,A*6D
$GPGGA,223845,3214.14476,N,11057.23699,W,1,04,1.0,742,M,000.0,M,,*71
$GPRMC,223845,A,3214.14476,N,11057.23699,W,000.0,000.0,301013,,,A*69
$GPGGA,223846,3214.14446,N,11057.23757,W,1,04,1.0,743,M,000.0,M,,*73
$GPRMC,223846,A,3214.14446,N,11057.23757,W,000.0,000.0,301013,,,A*6A
$GPGGA,223847,3214.14426,N,11057.23919,W,1,04,1.0,744,M,000.0,M,,*77
$GPRMC,223847,A,3214.14426,N,11057.23919,W,000.0,000.0,301013,,,A*69
$GPGGA,223849,3214.14424,N,11057.24005,W,1,04,1.0,744,M,000.0,M,,*78
$GPRMC,223849,A,3214.14424,N,11057.24005,W,000.0,000.0,301013,,,A*66
$GPGGA,223850,3214.14451,N,11057.24078,W,1,04,1.0,745,M,000.0,M,,*79
$GPRMC,223850,A,3214.14451,N,11057.24078,W,000.0,000.0,301013,,,A*66
$GPGGA,223851,3214.14476,N,11057.24168,W,1,04,1.0,744,M,000.0,M,,*7C
$GPRMC,223851,A,3214.14476,N,11057.24168,W,000.0,000.0,301013,,,A*62
$GPGGA,223852,3214.14459,N,11057.24333,W,1,04,1.0,743,M,000.0,M,,*79
$GPRMC,223852,A,3214.14459,N,11057.24333,W,000.0,000.0,301013,,,A*60
$GPGGA,223854,3214.14431,N,11057.24424,W,1,04,1.0,743,M,000.0,M,,*70
$GPRMC,223854,A,3214.14431,N,11057.24424,W,000.0,000.0,301013,,,A*69
$GPGGA,223855,3214.14393,N,11057.24502,W,1,04,1.0,743,M,000.0,M,,*7B
$GPRMC,223855,A,3214.14393,N,11057.24502,W,000.0,000.0,301013,,,A*62
$GPGGA,223857,3214.14349,N,11057.24684,W,1,04,1.0,742,M,000.0,M,,*72
$GPRMC,223857,A,3214.14349,N,11057.24684,W,000.0,000.0,301013,,,A*6A
$GPGGA,223858,3214.14327,N,11057.24764,W,1,04,1.0,742,M,000.0,M,,*7A
$GPRMC,223858,A,3214.14327,N,11057.24764,W,000.0,000.0,301013,,,A*62
$GPGGA,223900,3214.14285,N,11057.24994,W,1,04,1.0,743,M,000.0,M,,*7F
$GPRMC,223900,A,3214.14285,N,11057.24994,W,000.0,000.0,301013,,,A*66
$GPGGA,223901,3214.14291,N,11057.2511,W,1,04,1.0,743,M,000.0,M,,*4E
$GPRMC,223901,A,3214.14291,N,11057.2511,W,000.0,000.0,301013,,,A*57
$GPGGA,223902,3214.14289,N,11057.25322,W,1,04,1.0,741,M,000.0,M,,*75
$GPRMC,223902,A,3214.14289,N,11057.25322,W,000.0,000.0,301013,,,A*6E
$GPGGA,223904,3214.14262,N,11057.25422,W,1,04,1.0,743,M,000.0,M,,*73
$GPRMC,223904,A,3214.14262,N,11057.25422,W,000.0,000.0,301013,,,A*6A
$GPGGA,223906,3214.14195,N,11057.25623,W,1,04,1.0,744,M,000.0,M,,*7E
$GPRMC,223906,A,3214.14195,N,11057.25623,W,000.0,000.0,301013,,,A*60
$GPGGA,223907,3214.14174,N,11057.25768,W,1,04,1.0,745,M,000.0,M,,*7F
$GPRMC,223907,A,3214.14174,N,11057.25768,W,000.0,000.0,301013,,,A*60
$GPGGA,223909,3214.14186,N,11057.26105,W,1,04,1.0,746,M,000.0,M,,*71
$GPRMC,223909,A,3214.14186,N,11057.26105,W,000.0,000.0,301013,,,A*6D
$GPGGA,223910,3214.14191,N,11057.26263,W,1,04,1.0,745,M,000.0,M,,*7F
$GPRMC,223910,A,3214.14191,N,11057.26263,W,000.0,000.0,301013,,,A*60
$GPGGA,223912,3214.142,N,11057.2651,W,1,04,1.0,745,M,000.0,M,,*45
$GPRMC,223912,A,3214.142,N,11057.2651,W,000.0,000.0,301013,,,A*5A
$GPGGA,223913,3214.14232,N,11057.26614,W,1,04,1.0,745,M,000.0,M,,*72
$GPRMC,223913,A,3214.14232,N,11057.26614,W,000.0,000.0,301013,,,A*6D
$GPGGA,223914,3214.14315,N,11057.26834,W,1,04,1.0,745,M,000.0,M,,*7D
$GPRMC,223914,A,3214.14315,N,11057.26834,W,000.0,000.0,301013,,,A*62
$GPGGA,223916,3214.14343,N,11057.2695,W,1,04,1.0,743,M,000.0,M,,*49
$GPRMC,223916,A,3214.14343,N,11057.2695,W,000.0,000.0,301013,,,A*50
$GPGGA,223917,3214.14336,N,11057.27114,W,1,04,1.0,743,M,000.0,M,,*73
$GPRMC,223917,A,3214.14336,N,11057.27114,W,000.0,000.0,301013,,,A*6A
$GPGGA,223919,3214.14317,N,11057.27148,W,1,04,1.0,742,M,000.0,M,,*76
$GPRMC,223919,A,3214.14317,N,11057.27148,W,000.0,000.0,301013,,,A*6E
$GPGGA,223920,3214.14275,N,11057.27209,W,1,04,1.0,739,M,000.0,M,,*73
$GPRMC,223920,A,3214.14275,N,11057.27209,W,000.0,000.0,301013,,,A*67
$GPGGA,223922,3214.14274,N,11057.27249,W,1,04,1.0,738,M,000.0,M,,*75
$GPRMC,223922,A,3214.14274,N,11057.27249,W,000.0,000.0,301013,,,A*60
$GPGGA,223924,3214.14283,N,11057.27493,W,1,04,1.0,739,M,000.0,M,,*7B
$GPRMC,223924,A,3214.14283,N,11057.27493,W,000.0,000.0,301013,,,A*6F
$GPGGA,223925,3214.14315,N,11057.27673,W,1,04,1.0,739,M,000.0,M,,*78
$GPRMC,223925,A,3214.14315,N,11057.27673,W,000.0,000.0,301013,,,A*6C
$GPGGA,223926,3214.14311,N,11057.27886,W,1,04,1.0,739,M,000.0,M,,*7B
$GPRMC,223926,A,3214.14311,N,11057.27886,W,000.0,000.0,301013,,,A*6F
$GPGGA,223928,3214.14286,N,11057.27994,W,1,04,1.0,739,M,000.0,M,,*78
$GPRMC,223928,A,3214.14286,N,11057.27994,W,000.0,000.0,301013,,,A*6C
$GPGGA,223929,3214.1421,N,11057.28287,W,1,04,1.0,739,M,000.0,M,,*40
$GPRMC,223929,A,3214.1421,N,11057.28287,W,000.0,000.0,301013,,,A*54
$GPGGA,223931,3214.14202,N,11057.28406,W,1,04,1.0,739,M,000.0,M,,*75
$GPRMC,223931,A,3214.14202,N,11057.28406,W,000.0,000.0,301013,,,A*61
$GPGGA,223932,3214.14237,N,11057.28759,W,1,04,1.0,740,M,000.0,M,,*77
$GPRMC,223932,A,3214.14237,N,11057.28759,W,000.0,000.0,301013,,,A*6D
$GPGGA,223934,3214.14245,N,11057.28931,W,1,04,1.0,740,M,000.0,M,,*74
$GPRMC,223934,A,3214.14245,N,11057.28931,W,000.0,000.0,301013,,,A*6E
$GPGGA,223935,3214.14268,N,11057.29214,W,1,04,1.0,739,M,000.0,M,,*79
$GPRMC,223935,A,3214.14268,N,11057.29214,W,000.0,000.0,301013,,,A*6D
$GPGGA,223937,3214.14316,N,11057.29307,W,1,04,1.0,739,M,000.0,M,,*70
$GPRMC,223937,A,3214.14316,N,11057.29307,W,000.0,000.0,301013,,,A*64
$GPGGA,223938,3214.14363,N,11057.29453,W,1,04,1.0,739,M,000.0,M,,*7B
$GPRMC,223938,A,3214.14363,N,11057.29453,W,000.0,000.0,301013,,,A*6F
$GPGGA,223940,3214.14423,N,11057.29508,W,1,04,1.0,740,M,000.0,M,,*76
$GPRMC,223940,A,3214.14423,N,11057.29508,W,000.0,000.0,301013,,,A*6C
$GPGGA,223941,3214.14552,N,11057.29671,W,1,04,1.0,742,M,000.0,M,,*7F
$GPRMC,223941,A,3214.14552,N,11057.29671,W,000.0,000.0,301013,,,A*67
$GPGGA,223943,3214.14612,N,11057.2972,W,1,04,1.0,742,M,000.0,M,,*4F
$GPRMC,223943,A,3214.14612,N,11057.2972,W,000.0,000.0,301013,,,A*57
$GPGGA,223944,3214.14626,N,11057.29775,W,1,04,1.0,743,M,000.0,M,,*7E
$GPRMC,223944,A,3214.14626,N,11057.29775,W,000.0,000.0,301013,,,A*67
$GPGGA,223946,3214.14607,N,11057.29929,W,1,04,1.0,741,M,000.0,M,,*7A
$GPRMC,223946,A,3214.14607,N,11057.29929,W,000.0,000.0,301013,,,A*61
$GPGGA,223947,3214.14623,N,11057.30131,W,1,04,1.0,742,M,000.0,M,,*77
$GPRMC,223947,A,3214.14623,N,11057.30131,W,000.0,000.0,301013,,,A*6F
$GPGGA,223949,3214.1468,N,11057.30225,W,1,04,1.0,740,M,000.0,M,,*44
$GPRMC,223949,A,3214.1468,N,11057.30225,W,000.0,000.0,301013,,,A*5E
$GPGGA,223950,3214.14719,N,11057.30328,W,1,04,1.0,739,M,000.0,M,,*7F
$GPRMC,223950,A,3214.14719,N,11057.30328,W,000.0,000.0,301013,,,A*6B
$GPGGA,223952,3214.1471,N,11057.30359,W,1,04,1.0,739,M,000.0,M,,*42
$GPRMC,223952,A,3214.1471,N,11057.30359,W,000.0,000.0,301013,,,A*56
$GPGGA,223953,3214.14706,N,11057.30415,W,1,04,1.0,739,M,000.0,M,,*7B
$GPRMC,223953,A,3214.14706,N,11057.30415,W,000.0,000.0,301013,,,A*6F
$GPGGA,223955,3214.14733,N,11057.30515,W,1,04,1.0,740,M,000.0,M,,*74
$GPRMC,223955,A,3214.14733,N,11057.30515,W,000.0,000.0,301013,,,A*6E
$GPGGA,223956,3214.14741,N,11057.30575,W,1,04,1.0,736,M,000.0,M,,*75
$GPRMC,223956,A,3214.14741,N,11057.30575,W,000.0,000.0,301013,,,A*6E
$GPGGA,223957,3214.14766,N,11057.30719,W,1,04,1.0,735,M,000.0,M,,*7A
$GPRMC,223957,A,3214.14766,N,11057.30719,W,000.0,000.0,301013,,,A*62
$GPGGA,223959,3214.14782,N,11057.30803,W,1,04,1.0,735,M,000.0,M,,*7A
$GPRMC,223959,A,3214.14782,N,11057.30803,W,000.0,000.0,301013,,,A*62
$GPGGA,224000,3214.14798,N,11057.31023,W,1,04,1.0,734,M,000.0,M,,*79
$GPRMC,224000,A,3214.14798,N,11057.31023,W,000.0,000.0,301013,,,A*60
$GPGGA,224002,3214.14778,N,11057.31162,W,1,04,1.0,734,M,000.0,M,,*71
$GPRMC,224002,A,3214.14778,N,11057.31162,W,000.0,000.0,301013,,,A*68
$GPGGA,224003,3214.14703,N,11057.31402,W,1,04,1.0,734,M,000.0,M,,*7F
$GPRMC,224003,A,3214.14703,N,11057.31402,W,000.0,000.0,301013,,,A*66
$GPGGA,224005,3214.14677,N,11057.31518,W,1,04,1.0,734,M,000.0,M,,*71
$GPRMC,224005,A,3214.14677,N,11057.31518,W,000.0,000.0,301013,,,A*68
$GPGGA,224006,3214.14705,N,11057.31902,W,1,04,1.0,736,M,000.0,M,,*73
$GPRMC,224006,A,3214.14705,N,11057.31902,W,000.0,000.0,301013,,,A*68
$GPGGA,224008,3214.1472,N,11057.32137,W,1,04,1.0,736,M,000.0,M,,*47
$GPRMC,224008,A,3214.1472,N,11057.32137,W,000.0,000.0,301013,,,A*5C
$GPGGA,224009,3214.14768,N,11057.32537,W,1,04,1.0,736,M,000.0,M,,*7E
$GPRMC,224009,A,3214.14768,N,11057.32537,W,000.0,000.0,301013,,,A*65
$GPGGA,224011,3214.14798,N,11057.3269,W,1,04,1.0,736,M,000.0,M,,*46
$GPRMC,224011,A,3214.14798,N,11057.3269,W,000.0,000.0,301013,,,A*5D
$GPGGA,224012,3214.14844,N,11057.32917,W,1,04,1.0,736,M,000.0,M,,*7B
$GPRMC,224012,A,3214.14844,N,11057.32917,W,000.0,000.0,301013,,,A*60
$GPGGA,224014,3214.14899,N,11057.33035,W,1,04,1.0,737,M,000.0,M,,*74
$GPRMC,224014,A,3214.14899,N,11057.33035,W,000.0,000.0,301013,,,A*6E
$GPGGA,224015,3214.14961,N,11057.33148,W,1,04,1.0,738,M,000.0,M,,*77
$GPRMC,224015,A,3214.14961,N,11057.33148,W,000.0,000.0,301013,,,A*62
$GPGGA,224017,3214.15087,N,11057.33416,W,1,04,1.0,739,M,000.0,M,,*7A
$GPRMC,224017,A,3214.15087,N,11057.33416,W,000.0,000.0,301013,,,A*6E
$GPGGA,224018,3214.15132,N,11057.33569,W,1,04,1.0,739,M,000.0,M,,*73
$GPRMC,224018,A,3214.15132,N,11057.33569,W,000.0,000.0,301013,,,A*67
$GPGGA,224019,3214.15214,N,11057.33833,W,1,04,1.0,738,M,000.0,M,,*76
$GPRMC,224019,A,3214.15214,N,11057.33833,W,000.0,000.0,301013,,,A*63
$GPGGA,224021,3214.15213,N,11057.33948,W,1,04,1.0,738,M,000.0,M,,*77
$GPRMC,224021,A,3214.15213,N,11057.33948,W,000.0,000.0,301013,,,A*62
$GPGGA,224023,3214.15167,N,11057.34217,W,1,04,1.0,740,M,000.0,M,,*7C
$GPRMC,224023,A,3214.15167,N,11057.34217,W,000.0,000.0,301013,,,A*66
$GPGGA,224024,3214.15124,N,11057.34486,W,1,04,1.0,743,M,000.0,M,,*71
$GPRMC,224024,A,3214.15124,N,11057.34486,W,000.0,000.0,301013,,,A*68
$GPGGA,224026,3214.15014,N,11057.34975,W,1,04,1.0,741,M,000.0,M,,*72
$GPRMC,224026,A,3214.15014,N,11057.34975,W,000.0,000.0,301013,,,A*69
$GPGGA,224027,3214.14964,N,11057.35055,W,1,04,1.0,739,M,000.0,M,,*79
$GPRMC,224027,A,3214.14964,N,11057.35055,W,000.0,000.0,301013,,,A*6D
$GPGGA,224028,3214.14851,N,11057.35151,W,1,04,1.0,737,M,000.0,M,,*7A
$GPRMC,224028,A,3214.14851,N,11057.35151,W,000.0,000.0,301013,,,A*60
$GPGGA,224030,3214.14785,N,11057.35207,W,1,04,1.0,737,M,000.0,M,,*75
$GPRMC,224030,A,3214.14785,N,11057.35207,W,000.0,000.0,301013,,,A*6F
$GPGGA,224031,3214.14704,N,11057.35322,W,1,04,1.0,737,M,000.0,M,,*7B
$GPRMC,224031,A,3214.14704,N,11057.35322,W,000.0,000.0,301013,,,A*61
$GPGGA,224033,3214.14691,N,11057.35407,W,1,04,1.0,737,M,000.0,M,,*74
$GPRMC,224033,A,3214.14691,N,11057.35407,W,000.0,000.0,301013,,,A*6E
$GPGGA,224035,3214.14693,N,11057.35602,W,1,04,1.0,737,M,000.0,M,,*77
$GPRMC,224035,A,3214.14693,N,11057.35602,W,000.0,000.0,301013,,,A*6D
$GPGGA,224036,3214.14699,N,11057.35698,W,1,04,1.0,737,M,000.0,M,,*7D
$GPRMC,224036,A,3214.14699,N,11057.35698,W,000.0,000.0,301013,,,A*67
$GPGGA,224037,3214.14719,N,11057.35886,W,1,04,1.0,737,M,000.0,M,,*74
$GPRMC,224037,A,3214.14719,N,11057.35886,W,000.0,000.0,301013,,,A*6E
$GPGGA,224039,3214.14756,N,11057.36033,W,1,04,1.0,738,M,000.0,M,,*7B
$GPRMC,224039,A,3214.14756,N,11057.36033,W,000.0,000.0,301013,,,A*6E
$GPGGA,224040,3214.1478,N,11057.36279,W,1,04,1.0,735,M,000.0,M,,*4F
$GPRMC,224040,A,3214.1478,N,11057.36279,W,000.0,000.0,301013,,,A*57
$GPGGA,224042,3214.14784,N,11057.36357,W,1,04,1.0,735,M,000.0,M,,*74
$GPRMC,224042,A,3214.14784,N,11057.36357,W,000.0,000.0,301013,,,A*6C
$GPGGA,224043,3214.14784,N,11057.36486,W,1,04,1.0,736,M,000.0,M,,*7D
$GPRMC,224043,A,3214.14784,N,11057.36486,W,000.0,000.0,301013,,,A*66
$GPGGA,224045,3214.14794,N,11057.36569,W,1,04,1.0,736,M,000.0,M,,*7A
$GPRMC,224045,A,3214.14794,N,11057.36569,W,000.0,000.0,301013,,,A*61
$GPGGA,224046,3214.14797,N,11057.36746,W,1,04,1.0,735,M,000.0,M,,*76
$GPRMC,224046,A,3214.14797,N,11057.36746,W,000.0,000.0,301013,,,A*6E
$GPGGA,224048,3214.14776,N,11057.36813,W,1,04,1.0,735,M,000.0,M,,*78
$GPRMC,224048,A,3214.14776,N,11057.36813,W,000.0,000.0,301013,,,A*60
$GPGGA,224049,3214.14696,N,11057.36932,W,1,04,1.0,734,M,000.0,M,,*75
$GPRMC,224049,A,3214.14696,N,11057.36932,W,000.0,000.0,301013,,,A*6C
$GPGGA,224051,3214.1466,N,11057.37015,W,1,04,1.0,734,M,000.0,M,,*48
$GPRMC,224051,A,3214.1466,N,11057.37015,W,000.0,000.0,301013,,,A*51
$GPGGA,224052,3214.14647,N,11057.37113,W,1,04,1.0,735,M,000.0,M,,*78
$GPRMC,224052,A,3214.14647,N,11057.37113,W,000.0,000.0,301013,,,A*60
$GPGGA,224053,3214.14652,N,11057.37353,W,1,04,1.0,735,M,000.0,M,,*7B
$GPRMC,224053,A,3214.14652,N,11057.37353,W,000.0,000.0,301013,,,A*63
$GPGGA,224055,3214.14663,N,11057.37472,W,1,04,1.0,734,M,000.0,M,,*7A
$GPRMC,224055,A,3214.14663,N,11057.37472,W,000.0,000.0,301013,,,A*63
$GPGGA,224056,3214.14696,N,11057.37704,W,1,04,1.0,735,M,000.0,M,,*70
$GPRMC,224056,A,3214.14696,N,11057.37704,W,000.0,000.0,301013,,,A*68
$GPGGA,224058,3214.14711,N,11057.37817,W,1,04,1.0,734,M,000.0,M,,*7C
$GPRMC,224058,A,3214.14711,N,11057.37817,W,000.0,000.0,301013,,,A*65
$GPGGA,224059,3214.14734,N,11057.38037,W,1,04,1.0,734,M,000.0,M,,*7F
$GPRMC,224059,A,3214.14734,N,11057.38037,W,000.0,000.0,301013,,,A*66
$GPGGA,224101,3214.14746,N,11057.38144,W,1,04,1.0,734,M,000.0,M,,*73
$GPRMC,224101,A,3214.14746,N,11057.38144,W,000.0,000.0,301013,,,A*6A
$GPGGA,224102,3214.14769,N,11057.38362,W,1,04,1.0,735,M,000.0,M,,*7A
$GPRMC,224102,A,3214.14769,N,11057.38362,W,000.0,000.0,301013,,,A*62
$GPGGA,224104,3214.14774,N,11057.38461,W,1,04,1.0,734,M,000.0,M,,*75
$GPRMC,224104,A,3214.14774,N,11057.38461,W,000.0,000.0,301013,,,A*6C
$GPGGA,224105,3214.14783,N,11057.38564,W,1,04,1.0,734,M,000.0,M,,*78
$GPRMC,224105,A,3214.14783,N,11057.38564,W,000.0,000.0,301013,,,A*61
$GPGGA,224107,3214.14785,N,11057.38769,W,1,04,1.0,735,M,000.0,M,,*72
$GPRMC,224107,A,3214.14785,N,11057.38769,W,000.0,000.0,301013,,,A*6A
$GPGGA,224108,3214.14782,N,11057.38964,W,1,04,1.0,736,M,000.0,M,,*7A
$GPRMC,224108,A,3214.14782,N,11057.38964,W,000.0,000.0,301013,,,A*61
$GPGGA,224110,3214.14783,N,11057.3907,W,1,04,1.0,736,M,000.0,M,,*4F
$GPRMC,224110,A,3214.14783,N,11057.3907,W,000.0,000.0,301013,,,A*54
$GPGGA,224111,3214.14786,N,11057.39169,W,1,04,1.0,735,M,000.0,M,,*71
$GPRMC,224111,A,3214.14786,N,11057.39169,W,000.0,000.0,301013,,,A*69
$GPGGA,224113,3214.14788,N,11057.39335,W,1,04,1.0,736,M,000.0,M,,*75
$GPRMC,224113,A,3214.14788,N,11057.39335,W,000.0,000.0,301013,,,A*6E
$GPGGA,224114,3214.14838,N,11057.39459,W,1,04,1.0,736,M,000.0,M,,*7B
$GPRMC,224114,A,3214.14838,N,11057.39459,W,000.0,000.0,301013,,,A*60
$GPGGA,224116,3214.14875,N,11057.39481,W,1,04,1.0,736,M,000.0,M,,*75
$GPRMC,224116,A,3214.14875,N,11057.39481,W,000.0,000.0,301013,,,A*6E
$GPGGA,224117,3214.14916,N,11057.39486,W,1,04,1.0,735,M,000.0,M,,*74
$GPRMC,224117,A,3214.14916,N,11057.39486,W,000.0,000.0,301013,,,A*6C
$GPGGA,224119,3214.14916,N,11057.39486,W,1,04,1.0,735,M,000.0,M,,*7A
$GPRMC,224119,A,3214.14916,N,11057.39486,W,000.0,000.0,301013,,,A*62
$GPGGA,224120,3214.14916,N,11057.39486,W,1,04,1.0,736,M,000.0,M,,*73
$GPRMC,224120,A,3214.14916,N,11057.39486,W,000.0,000.0,301013,,,A*68
