$GPGGA,161606.000,3214.6031,N,11051.4639,W,1,07,1.2,770.8,M,-27.6,M,,0000*66

$GPGSA,A,3,17,02,04,24,28,10,12,,,,,,2.2,1.2,1.8*36

$GPRMC,161606.000,A,3214.6031,N,11051.4639,W,0.00,64.30,251013,,,A*43

$GPGGA,161607.000,3214.6031,N,11051.4639,W,1,07,1.2,770.8,M,-27.6,M,,0000*67

$GPGSA,A,3,17,02,04,24,28,10,12,,,,,,2.2,1.2,1.8*36

$GPRMC,161607.000,A,3214.6031,N,11051.4639,W,0.00,64.30,251013,,,A*42

$GPGGA,161608.000,3214.6031,N,11051.4639,W,1,06,1.5,770.8,M,-27.6,M,,0000*6E

$GPGSA,A,3,17,02,04,24,28,10,,,,,,,2.9,1.5,2.4*36

$GPGSV,3,1,09,04,74,081,28,02,56,201,38,24,47,277,38,17,35,050,33*76

$GPGSV,3,2,09,12,27,316,,10,19,133,33,28,18,114,29,20,04,044,*71

$GPGSV,3,3,09,51,52,173,29*4D

$GPRMC,161608.000,A,3214.6031,N,11051.4639,W,0.00,64.30,251013,,,A*4D

$GPGGA,161609.000,3214.6035,N,11051.4662,W,1,06,1.5,770.6,M,-27.6,M,,0000*6B

$GPGSA,A,3,17,02,04,24,28,10,,,,,,,2.9,1.5,2.4*36

$GPRMC,161609.000,A,3214.6035,N,11051.4662,W,7.03,278.71,251013,,,A*78

$GPGGA,161610.000,3214.6040,N,11051.4692,W,1,07,1.2,770.8,M,-27.6,M,,0000*66

$GPGSA,A,3,17,02,04,24,28,10,12,,,,,,2.2,1.2,1.8*36

$GPRMC,161610.000,A,3214.6040,N,11051.4692,W,10.26,280.39,251013,,,A*47

$GPGGA,161611.000,3214.6047,N,11051.4729,W,1,07,1.2,770.3,M,-27.6,M,,0000*6A

$GPGSA,A,3,17,02,04,24,28,10,12,,,,,,2.2,1.2,1.8*36

$GPRMC,161611.000,A,3214.6047,N,11051.4729,W,12.32,279.30,251013,,,A*48

$GPGGA,161612.000,3214.6053,N,11051.4775,W,1,07,1.2,769.7,M,-27.6,M,,0000*69

$GPGSA,A,3,17,02,04,24,28,10,12,,,,,,2.2,1.2,1.8*36

$GPRMC,161612.000,A,3214.6053,N,11051.4775,W,14.50,276.98,251013,,,A*48

$GPGGA,161613.000,3214.6057,N,11051.4828,W,1,07,1.2,769.2,M,-27.6,M,,0000*6E

$GPGSA,A,3,17,02,04,24,28,10,12,,,,,,2.2,1.2,1.8*36

$GPGSV,3,1,09,04,73,081,21,02,56,201,29,24,47,277,33,17,34,050,30*71

$GPGSV,3,2,09,12,28,316,25,10,19,133,28,28,18,115,26,20,04,044,*7D

$GPGSV,3,3,09,51,52,173,26*42

$GPRMC,161613.000,A,3214.6057,N,11051.4828,W,16.95,273.09,251013,,,A*4C

$GPGGA,161614.000,3214.6057,N,11051.4888,W,1,07,1.2,768.8,M,-27.6,M,,0000*68

$GPGSA,A,3,17,02,04,24,28,10,12,,,,,,2.2,1.2,1.8*36

$GPRMC,161614.000,A,3214.6057,N,11051.4888,W,18.76,268.10,251013,,,A*40

$GPGGA,161615.000,3214.6054,N,11051.4953,W,1,07,1.2,769.0,M,-27.6,M,,0000*64

$GPGSA,A,3,17,02,04,24,28,10,12,,,,,,2.2,1.2,1.8*36

$GPRMC,161615.000,A,3214.6054,N,11051.4953,W,20.82,265.01,251013,,,A*48

$GPGGA,161616.000,3214.6050,N,11051.5026,W,1,07,1.2,768.9,M,-27.6,M,,0000*61

$GPGSA,A,3,17,02,04,24,28,10,12,,,,,,2.2,1.2,1.8*36

$GPRMC,161616.000,A,3214.6050,N,11051.5026,W,22.55,266.39,251013,,,A*45

$GPGGA,161617.000,3214.6047,N,11051.5104,W,1,07,1.2,767.9,M,-27.6,M,,0000*68

$GPGSA,A,3,17,02,04,24,28,10,12,,,,,,2.2,1.2,1.8*36

$GPRMC,161617.000,A,3214.6047,N,11051.5104,W,23.71,267.47,251013,,,A*4C

$GPGGA,161618.000,3214.6045,N,11051.5185,W,1,07,1.2,767.5,M,-27.6,M,,0000*60

$GPGSA,A,3,17,02,04,24,28,10,12,,,,,,2.2,1.2,1.8*36

$GPGSV,2,1,08,04,73,080,23,02,56,201,34,24,47,276,28,17,34,050,26*72

$GPGSV,2,2,08,12,28,316,18,10,19,133,28,28,18,115,16,20,04,044,*70

$GPRMC,161618.000,A,3214.6045,N,11051.5185,W,24.76,269.69,251013,,,A*4A

$GPGGA,161619.000,3214.6043,N,11051.5271,W,1,07,1.2,766.3,M,-27.6,M,,0000*68

$GPGSA,A,3,17,02,04,24,28,10,12,,,,,,2.2,1.2,1.8*36

$GPRMC,161619.000,A,3214.6043,N,11051.5271,W,26.05,268.99,251013,,,A*4D

$GPGGA,161620.000,3214.6041,N,11051.5361,W,1,07,1.2,765.2,M,-27.6,M,,0000*62

$GPGSA,A,3,17,02,04,24,28,10,12,,,,,,2.2,1.2,1.8*36

$GPRMC,161620.000,A,3214.6041,N,11051.5361,W,26.56,269.94,251013,,,A*4F

$GPGGA,161621.000,3214.6043,N,11051.5450,W,1,06,1.3,765.1,M,-27.6,M,,0000*67

$GPGSA,A,3,17,02,24,28,10,12,,,,,,,3.1,1.3,2.8*32

$GPRMC,161621.000,A,3214.6043,N,11051.5450,W,27.14,270.85,251013,,,A*46

$GPGGA,161622.000,3214.6045,N,11051.5542,W,1,06,1.3,765.2,M,-27.6,M,,0000*63

$GPGSA,A,3,17,02,24,28,10,12,,,,,,,3.1,1.3,2.8*32

$GPRMC,161622.000,A,3214.6045,N,11051.5542,W,28.00,270.74,251013,,,A*45

$GPGGA,161623.000,3214.6045,N,11051.5636,W,1,06,1.3,765.6,M,-27.6,M,,0000*66

$GPGSA,A,3,17,02,24,28,10,12,,,,,,,3.1,1.3,2.8*32

$GPGSV,2,1,08,04,73,080,10,02,56,201,34,24,47,276,28,17,34,050,26*72

$GPGSV,2,2,08,12,28,316,19,10,19,133,27,28,18,115,17,20,04,044,*7F

$GPRMC,161623.000,A,3214.6045,N,11051.5636,W,28.67,270.54,251013,,,A*47

$GPGGA,161624.000,3214.6046,N,11051.5734,W,1,06,1.3,765.7,M,-27.6,M,,0000*60

$GPGSA,A,3,17,02,24,28,10,12,,,,,,,3.1,1.3,2.8*32

$GPRMC,161624.000,A,3214.6046,N,11051.5734,W,29.21,270.18,251013,,,A*4B

$GPGGA,161625.000,3214.6047,N,11051.5832,W,1,06,1.3,765.9,M,-27.6,M,,0000*67

$GPGSA,A,3,17,02,24,28,10,12,,,,,,,3.1,1.3,2.8*32

$GPRMC,161625.000,A,3214.6047,N,11051.5832,W,29.24,270.18,251013,,,A*47

$GPGGA,161626.000,3214.6047,N,11051.5929,W,1,06,1.3,766.4,M,-27.6,M,,0000*61

$GPGSA,A,3,17,02,24,28,10,12,,,,,,,3.1,1.3,2.8*32

$GPRMC,161626.000,A,3214.6047,N,11051.5929,W,29.52,269.76,251013,,,A*4E

$GPGGA,161627.000,3214.6048,N,11051.6026,W,1,06,1.3,767.1,M,-27.6,M,,0000*6E

$GPGSA,A,3,17,02,24,28,10,12,,,,,,,3.1,1.3,2.8*32

$GPRMC,161627.000,A,3214.6048,N,11051.6026,W,29.33,270.04,251013,,,A*4F

$GPGGA,161628.000,3214.6049,N,11051.6123,W,1,06,1.3,767.8,M,-27.6,M,,0000*6D

$GPGSA,A,3,17,02,24,28,10,12,,,,,,,3.1,1.3,2.8*32

$GPGSV,2,1,08,04,73,080,,02,56,201,34,24,47,276,29,17,34,050,26*72

$GPGSV,2,2,08,12,28,316,20,10,19,133,27,28,18,115,18,20,04,044,*7A

$GPRMC,161628.000,A,3214.6049,N,11051.6123,W,30.14,270.68,251013,,,A*42

$GPGGA,161629.000,3214.6050,N,11051.6223,W,1,06,1.3,768.4,M,-27.6,M,,0000*64

$GPGSA,A,3,17,02,24,28,10,12,,,,,,,3.1,1.3,2.8*32

$GPRMC,161629.000,A,3214.6050,N,11051.6223,W,30.46,269.93,251013,,,A*43

$GPGGA,161630.000,3214.6052,N,11051.6322,W,1,06,1.3,769.3,M,-27.6,M,,0000*68

$GPGSA,A,3,17,02,24,28,10,12,,,,,,,3.1,1.3,2.8*32

$GPRMC,161630.000,A,3214.6052,N,11051.6322,W,30.98,270.86,251013,,,A*46

$GPGGA,161631.000,3214.6056,N,11051.6423,W,1,06,1.3,770.3,M,-27.6,M,,0000*63

$GPGSA,A,3,17,02,24,28,10,12,,,,,,,3.1,1.3,2.8*32

$GPRMC,161631.000,A,3214.6056,N,11051.6423,W,31.09,270.81,251013,,,A*4B

$GPGGA,161632.000,3214.6059,N,11051.6527,W,1,07,1.2,770.8,M,-27.6,M,,0000*61

$GPGSA,A,3,17,02,24,28,10,12,04,,,,,,2.2,1.2,1.8*36

$GPRMC,161632.000,A,3214.6059,N,11051.6527,W,31.99,271.78,251013,,,A*4C

$GPGGA,161633.000,3214.6063,N,11051.6633,W,1,07,1.2,770.8,M,-27.6,M,,0000*6F

$GPGSA,A,3,17,02,24,28,10,12,04,,,,,,2.2,1.2,1.8*36

$GPGSV,2,1,08,04,73,080,23,02,56,201,34,24,47,276,30,17,34,050,23*7E

$GPGSV,2,2,08,12,28,316,21,10,19,133,27,28,18,115,18,20,04,044,*7B

$GPRMC,161633.000,A,3214.6063,N,11051.6633,W,32.37,271.41,251013,,,A*4F

$GPGGA,161634.000,3214.6065,N,11051.6742,W,1,07,1.2,770.5,M,-27.6,M,,0000*64

$GPGSA,A,3,17,02,24,28,10,12,04,,,,,,2.2,1.2,1.8*36

$GPRMC,161634.000,A,3214.6065,N,11051.6742,W,32.82,270.32,251013,,,A*42

$GPGGA,161635.000,3214.6066,N,11051.6852,W,1,07,1.2,770.0,M,-27.6,M,,0000*6D

$GPGSA,A,3,17,02,24,28,10,12,04,,,,,,2.2,1.2,1.8*36

$GPRMC,161635.000,A,3214.6066,N,11051.6852,W,33.51,270.23,251013,,,A*41

$GPGGA,161636.000,3214.6065,N,11051.6962,W,1,07,1.2,770.1,M,-27.6,M,,0000*6E

$GPGSA,A,3,17,02,24,28,10,12,04,,,,,,2.2,1.2,1.8*36

$GPRMC,161636.000,A,3214.6065,N,11051.6962,W,33.35,269.64,251013,,,A*4A

$GPGGA,161637.000,3214.6065,N,11051.7074,W,1,07,1.2,770.3,M,-27.6,M,,0000*62

$GPGSA,A,3,17,02,24,28,10,12,04,,,,,,2.2,1.2,1.8*36

$GPRMC,161637.000,A,3214.6065,N,11051.7074,W,33.79,270.63,251013,,,A*43

$GPGGA,161638.000,3214.6065,N,11051.7189,W,1,07,1.2,769.6,M,-27.6,M,,0000*63

$GPGSA,A,3,17,02,24,28,10,12,04,,,,,,2.2,1.2,1.8*36

$GPGSV,2,1,08,04,73,080,23,02,56,201,33,24,47,276,30,17,34,050,23*79

$GPGSV,2,2,08,12,28,316,21,10,19,133,22,28,18,115,17,20,04,044,*71

$GPRMC,161638.000,A,3214.6065,N,11051.7189,W,33.84,271.22,251013,,,A*49

$GPGGA,161639.000,3214.6065,N,11051.7308,W,1,07,1.2,767.2,M,-27.6,M,,0000*63

$GPGSA,A,3,17,02,24,28,10,12,04,,,,,,2.2,1.2,1.8*36

$GPRMC,161639.000,A,3214.6065,N,11051.7308,W,34.77,270.74,251013,,,A*4A

$GPGGA,161640.000,3214.6065,N,11051.7423,W,1,07,1.2,767.8,M,-27.6,M,,0000*69

$GPGSA,A,3,17,02,24,28,10,12,04,,,,,,2.2,1.2,1.8*36

$GPRMC,161640.000,A,3214.6065,N,11051.7423,W,35.11,269.91,251013,,,A*48

$GPGGA,161641.000,3214.6065,N,11051.7540,W,1,07,1.2,767.3,M,-27.6,M,,0000*67

$GPGSA,A,3,17,02,24,28,10,12,04,,,,,,2.2,1.2,1.8*36

$GPRMC,161641.000,A,3214.6065,N,11051.7540,W,35.43,270.37,251013,,,A*4E

$GPGGA,161642.000,3214.6067,N,11051.7657,W,1,07,1.2,767.1,M,-27.6,M,,0000*61

$GPGSA,A,3,17,02,24,28,10,12,04,,,,,,2.2,1.2,1.8*36

$GPRMC,161642.000,A,3214.6067,N,11051.7657,W,35.49,271.00,251013,,,A*45

$GPGGA,161643.000,3214.6068,N,11051.7776,W,1,07,1.2,766.7,M,-27.6,M,,0000*6A

$GPGSA,A,3,17,02,24,28,10,12,04,,,,,,2.2,1.2,1.8*36

$GPGSV,2,1,08,04,73,080,23,02,56,201,32,24,47,276,30,17,34,050,23*78

$GPGSV,2,2,08,12,28,316,21,10,19,133,25,28,18,115,16,20,04,044,*77

$GPRMC,161643.000,A,3214.6068,N,11051.7776,W,35.95,270.56,251013,,,A*4A

$GPGGA,161644.000,3214.6069,N,11051.7894,W,1,07,1.2,766.0,M,-27.6,M,,0000*68

$GPGSA,A,3,17,02,24,28,10,12,04,,,,,,2.2,1.2,1.8*36

$GPRMC,161644.000,A,3214.6069,N,11051.7894,W,35.83,271.18,251013,,,A*43

$GPGGA,161645.000,3214.6071,N,11051.8013,W,1,07,1.2,765.7,M,-27.6,M,,0000*6C

$GPGSA,A,3,17,02,24,28,10,12,04,,,,,,2.2,1.2,1.8*36

$GPRMC,161645.000,A,3214.6071,N,11051.8013,W,36.02,271.72,251013,,,A*45

$GPGGA,161646.000,3214.6072,N,11051.8134,W,1,06,1.2,764.0,M,-27.6,M,,0000*6F

$GPGSA,A,3,17,02,24,10,12,04,,,,,,,2.3,1.2,2.0*36

$GPRMC,161646.000,A,3214.6072,N,11051.8134,W,36.53,270.04,251013,,,A*45

$GPGGA,161647.000,3214.6073,N,11051.8258,W,1,06,1.2,762.8,M,-27.6,M,,0000*68

$GPGSA,A,3,17,02,24,10,12,04,,,,,,,2.3,1.2,2.0*36

$GPRMC,161647.000,A,3214.6073,N,11051.8258,W,36.62,270.60,251013,,,A*4C

$GPGGA,161648.000,3214.6073,N,11051.8380,W,1,06,1.2,762.7,M,-27.6,M,,0000*6C

$GPGSA,A,3,17,02,24,10,12,04,,,,,,,2.3,1.2,2.0*36

$GPGSV,2,1,08,04,73,080,24,02,56,201,33,24,47,276,31,17,34,050,22*7E

$GPGSV,2,2,08,12,28,316,26,10,19,133,24,28,18,115,,20,04,044,*76

$GPRMC,161648.000,A,3214.6073,N,11051.8380,W,36.70,270.38,251013,,,A*49

$GPGGA,161649.000,3214.6073,N,11051.8501,W,1,06,1.2,762.2,M,-27.6,M,,0000*67

$GPGSA,A,3,17,02,24,10,12,04,,,,,,,2.3,1.2,2.0*36

$GPRMC,161649.000,A,3214.6073,N,11051.8501,W,36.47,270.71,251013,,,A*4E

$GPGGA,161650.000,3214.6076,N,11051.8623,W,1,06,1.2,760.7,M,-27.6,M,,0000*6E

$GPGSA,A,3,17,02,24,10,12,04,,,,,,,2.3,1.2,2.0*36

$GPRMC,161650.000,A,3214.6076,N,11051.8623,W,36.54,271.19,251013,,,A*4D

$GPGGA,161651.000,3214.6079,N,11051.8741,W,1,06,1.2,760.3,M,-27.6,M,,0000*61

$GPGSA,A,3,17,02,24,10,12,04,,,,,,,2.3,1.2,2.0*36

$GPRMC,161651.000,A,3214.6079,N,11051.8741,W,35.20,270.31,251013,,,A*4D

$GPGGA,161652.000,3214.6080,N,11051.8856,W,1,06,1.2,760.3,M,-27.6,M,,0000*6D

$GPGSA,A,3,17,02,24,10,12,04,,,,,,,2.3,1.2,2.0*36

$GPRMC,161652.000,A,3214.6080,N,11051.8856,W,34.63,270.49,251013,,,A*48

$GPGGA,161653.000,3214.6079,N,11051.8971,W,1,06,1.2,759.1,M,-27.6,M,,0000*66

$GPGSA,A,3,17,02,24,10,12,04,,,,,,,2.3,1.2,2.0*36

$GPGSV,2,1,08,04,73,080,24,02,56,201,33,24,47,276,31,17,34,050,23*7F

$GPGSV,2,2,08,12,28,316,20,10,19,133,24,28,18,115,,20,04,044,*70

$GPRMC,161653.000,A,3214.6079,N,11051.8971,W,34.89,269.25,251013,,,A*4D

$GPGGA,161654.000,3214.6079,N,11051.9085,W,1,06,1.2,759.3,M,-27.6,M,,0000*60

$GPGSA,A,3,17,02,24,10,12,04,,,,,,,2.3,1.2,2.0*36

$GPRMC,161654.000,A,3214.6079,N,11051.9085,W,34.44,270.55,251013,,,A*47

$GPGGA,161655.000,3214.6078,N,11051.9198,W,1,06,1.2,758.2,M,-27.6,M,,0000*6D

$GPGSA,A,3,17,02,24,10,12,04,,,,,,,2.3,1.2,2.0*36

$GPRMC,161655.000,A,3214.6078,N,11051.9198,W,34.36,269.99,251013,,,A*47

$GPGGA,161656.000,3214.6076,N,11051.9312,W,1,06,1.2,757.6,M,-27.6,M,,0000*6B

$GPGSA,A,3,17,02,24,10,12,04,,,,,,,2.3,1.2,2.0*36

$GPRMC,161656.000,A,3214.6076,N,11051.9312,W,34.21,270.31,251013,,,A*46

$GPGGA,161657.000,3214.6075,N,11051.9424,W,1,06,1.2,757.9,M,-27.6,M,,0000*64

$GPGSA,A,3,17,02,24,10,12,04,,,,,,,2.3,1.2,2.0*36

$GPRMC,161657.000,A,3214.6075,N,11051.9424,W,34.46,269.87,251013,,,A*42

$GPGGA,161658.000,3214.6074,N,11051.9537,W,1,06,1.2,758.2,M,-27.6,M,,0000*6D

$GPGSA,A,3,17,02,24,10,12,04,,,,,,,2.3,1.2,2.0*36

$GPGSV,2,1,08,04,73,080,24,02,56,201,34,24,47,276,31,17,34,050,28*73

$GPGSV,2,2,08,12,28,316,22,10,19,133,25,28,18,115,,20,04,044,*73

$GPRMC,161658.000,A,3214.6074,N,11051.9537,W,34.89,270.10,251013,,,A*4A

$GPGGA,161659.000,3214.6073,N,11051.9653,W,1,06,1.2,757.8,M,-27.6,M,,0000*6F

$GPGSA,A,3,17,02,24,10,12,04,,,,,,,2.3,1.2,2.0*36

$GPRMC,161659.000,A,3214.6073,N,11051.9653,W,35.26,270.30,251013,,,A*4B

$GPGGA,161700.000,3214.6073,N,11051.9770,W,1,05,1.5,757.6,M,-27.6,M,,0000*68

$GPGSA,A,3,17,02,24,10,04,,,,,,,,3.0,1.5,2.6*36

$GPRMC,161700.000,A,3214.6073,N,11051.9770,W,35.68,270.29,251013,,,A*44

$GPGGA,161701.000,3214.6074,N,11051.9889,W,1,05,1.5,756.9,M,-27.6,M,,0000*69

$GPGSA,A,3,17,02,24,10,04,,,,,,,,3.0,1.5,2.6*36

$GPRMC,161701.000,A,3214.6074,N,11051.9889,W,36.04,270.39,251013,,,A*43

$GPGGA,161702.000,3214.6074,N,11052.0007,W,1,06,1.5,756.6,M,-27.6,M,,0000*62

$GPGSA,A,3,17,02,28,24,10,04,,,,,,,2.9,1.5,2.4*36

$GPRMC,161702.000,A,3214.6074,N,11052.0007,W,35.94,270.41,251013,,,A*41

$GPGGA,161703.000,3214.6075,N,11052.0127,W,1,06,1.5,756.0,M,-27.6,M,,0000*67

$GPGSA,A,3,17,02,28,24,10,04,,,,,,,2.9,1.5,2.4*36

$GPGSV,2,1,08,04,73,080,14,02,56,201,34,24,47,276,30,17,34,050,27*7E

$GPGSV,2,2,08,12,28,316,11,10,19,133,26,28,18,115,16,20,04,044,*77

$GPRMC,161703.000,A,3214.6075,N,11052.0127,W,36.57,270.69,251013,,,A*44

$GPGGA,161704.000,3214.6077,N,11052.0248,W,1,06,1.5,755.4,M,-27.6,M,,0000*6F

$GPGSA,A,3,17,02,28,24,10,04,,,,,,,2.9,1.5,2.4*36

$GPRMC,161704.000,A,3214.6077,N,11052.0248,W,36.90,270.84,251013,,,A*43

$GPGGA,161705.000,3214.6078,N,11052.0370,W,1,07,1.2,755.2,M,-27.6,M,,0000*6B

$GPGSA,A,3,17,02,28,24,10,12,04,,,,,,2.2,1.2,1.8*36

$GPRMC,161705.000,A,3214.6078,N,11052.0370,W,37.24,270.22,251013,,,A*45

$GPGGA,161706.000,3214.6081,N,11052.0490,W,1,07,1.2,755.0,M,-27.6,M,,0000*65

$GPGSA,A,3,17,02,28,24,10,12,04,,,,,,2.2,1.2,1.8*36

$GPRMC,161706.000,A,3214.6081,N,11052.0490,W,37.23,270.52,251013,,,A*49

$GPGGA,161707.000,3214.6083,N,11052.0612,W,1,07,1.2,754.9,M,-27.6,M,,0000*66

$GPGSA,A,3,17,02,28,24,10,12,04,,,,,,2.2,1.2,1.8*36

$GPRMC,161707.000,A,3214.6083,N,11052.0612,W,37.27,270.50,251013,,,A*44

$GPGGA,161708.000,3214.6084,N,11052.0736,W,1,06,1.2,754.4,M,-27.6,M,,0000*65

$GPGSA,A,3,17,02,24,10,12,04,,,,,,,2.3,1.2,2.0*36

$GPGSV,2,1,08,04,73,080,17,02,56,201,33,24,47,276,30,17,34,050,26*7B

$GPGSV,2,2,08,12,28,316,15,10,19,133,26,28,18,115,,20,04,044,*74

$GPRMC,161708.000,A,3214.6084,N,11052.0736,W,37.58,270.77,251013,,,A*46

$GPGGA,161709.000,3214.6085,N,11052.0860,W,1,06,1.2,753.8,M,-27.6,M,,0000*62

$GPGSA,A,3,17,02,24,10,12,04,,,,,,,2.3,1.2,2.0*36

$GPRMC,161709.000,A,3214.6085,N,11052.0860,W,37.44,270.41,251013,,,A*42

$GPGGA,161710.000,3214.6087,N,11052.0984,W,1,06,1.2,753.2,M,-27.6,M,,0000*69

$GPGSA,A,3,17,02,24,10,12,04,,,,,,,2.3,1.2,2.0*36

$GPRMC,161710.000,A,3214.6087,N,11052.0984,W,37.57,270.88,251013,,,A*44

$GPGGA,161711.000,3214.6090,N,11052.1110,W,1,06,1.2,751.7,M,-27.6,M,,0000*6D

$GPGSA,A,3,17,02,24,10,12,04,,,,,,,2.3,1.2,2.0*36

$GPRMC,161711.000,A,3214.6090,N,11052.1110,W,37.83,270.99,251013,,,A*4E

$GPGGA,161712.000,3214.6092,N,11052.1232,W,1,06,1.2,750.9,M,-27.6,M,,0000*60

$GPGSA,A,3,17,02,24,10,12,04,,,,,,,2.3,1.2,2.0*36

$GPRMC,161712.000,A,3214.6092,N,11052.1232,W,37.18,271.05,251013,,,A*4A

$GPGGA,161713.000,3214.6092,N,11052.1355,W,1,06,1.2,750.2,M,-27.6,M,,0000*6A

$GPGSA,A,3,17,02,24,10,12,04,,,,,,,2.3,1.2,2.0*36

$GPGSV,2,1,08,04,73,080,18,02,56,201,33,24,47,276,31,17,34,050,25*76

$GPGSV,2,2,08,12,28,316,17,10,19,133,26,28,18,115,,20,04,044,*76

$GPRMC,161713.000,A,3214.6092,N,11052.1355,W,37.24,269.46,251013,,,A*4A

$GPGGA,161714.000,3214.6092,N,11052.1475,W,1,06,1.2,750.1,M,-27.6,M,,0000*6B

$GPGSA,A,3,17,02,24,10,12,04,,,,,,,2.3,1.2,2.0*36

$GPRMC,161714.000,A,3214.6092,N,11052.1475,W,36.75,269.88,251013,,,A*4F

$GPGGA,161715.000,3214.6093,N,11052.1594,W,1,06,1.2,750.2,M,-27.6,M,,0000*66

$GPGSA,A,3,17,02,24,10,12,04,,,,,,,2.3,1.2,2.0*36

$GPRMC,161715.000,A,3214.6093,N,11052.1594,W,36.62,270.31,251013,,,A*4D

$GPGGA,161716.000,3214.6094,N,11052.1713,W,1,06,1.2,750.2,M,-27.6,M,,0000*6F

$GPGSA,A,3,17,02,24,10,12,04,,,,,,,2.3,1.2,2.0*36

$GPRMC,161716.000,A,3214.6094,N,11052.1713,W,36.43,270.54,251013,,,A*44

$GPGGA,161717.000,3214.6094,N,11052.1830,W,1,06,1.2,750.6,M,-27.6,M,,0000*64

$GPGSA,A,3,17,02,24,10,12,04,,,,,,,2.3,1.2,2.0*36

$GPRMC,161717.000,A,3214.6094,N,11052.1830,W,35.87,269.95,251013,,,A*45

$GPGGA,161718.000,3214.6095,N,11052.1946,W,1,06,1.2,751.1,M,-27.6,M,,0000*6C

$GPGSA,A,3,17,02,24,10,12,04,,,,,,,2.3,1.2,2.0*36

$GPGSV,2,1,08,04,73,080,18,02,56,201,32,24,47,276,31,17,34,050,25*77

$GPGSV,2,2,08,12,28,316,17,10,19,133,26,28,18,115,,20,04,044,*76

$GPRMC,161718.000,A,3214.6095,N,11052.1946,W,35.49,270.81,251013,,,A*44

$GPGGA,161719.000,3214.6097,N,11052.2060,W,1,06,1.2,751.7,M,-27.6,M,,0000*67

$GPGSA,A,3,17,02,24,10,12,04,,,,,,,2.3,1.2,2.0*36

$GPRMC,161719.000,A,3214.6097,N,11052.2060,W,34.84,270.75,251013,,,A*42

$GPGGA,161720.000,3214.6098,N,11052.2173,W,1,06,1.2,751.7,M,-27.6,M,,0000*61

$GPGSA,A,3,17,02,24,10,12,04,,,,,,,2.3,1.2,2.0*36

$GPRMC,161720.000,A,3214.6098,N,11052.2173,W,34.63,271.13,251013,,,A*4C

$GPGGA,161721.000,3214.6100,N,11052.2284,W,1,06,1.2,751.7,M,-27.6,M,,0000*6B

$GPGSA,A,3,17,02,24,10,12,04,,,,,,,2.3,1.2,2.0*36

$GPRMC,161721.000,A,3214.6100,N,11052.2284,W,34.26,270.37,251013,,,A*40

$GPGGA,161722.000,3214.6098,N,11052.2398,W,1,06,1.2,751.5,M,-27.6,M,,0000*66

$GPGSA,A,3,17,02,24,10,12,04,,,,,,,2.3,1.2,2.0*36

$GPRMC,161722.000,A,3214.6098,N,11052.2398,W,34.63,269.84,251013,,,A*4E

$GPGGA,161723.000,3214.6098,N,11052.2512,W,1,06,1.2,750.7,M,-27.6,M,,0000*60

$GPGSA,A,3,17,02,24,10,12,04,,,,,,,2.3,1.2,2.0*36

$GPGSV,2,1,08,04,73,080,18,02,56,201,32,24,47,276,31,17,34,050,25*77

$GPGSV,2,2,08,12,28,316,18,10,19,133,26,28,18,115,,20,04,044,*79

$GPRMC,161723.000,A,3214.6098,N,11052.2512,W,34.37,270.43,251013,,,A*49

$GPGGA,161724.000,3214.6097,N,11052.2624,W,1,07,1.2,750.7,M,-27.6,M,,0000*6F

$GPGSA,A,3,17,02,28,24,10,12,04,,,,,,2.2,1.2,1.8*36

$GPRMC,161724.000,A,3214.6097,N,11052.2624,W,34.11,270.18,251013,,,A*4D

$GPGGA,161725.000,3214.6098,N,11052.2736,W,1,06,1.5,750.6,M,-27.6,M,,0000*64

$GPGSA,A,3,17,02,28,24,10,04,,,,,,,2.9,1.5,2.4*36

$GPRMC,161725.000,A,3214.6098,N,11052.2736,W,34.27,270.78,251013,,,A*42

$GPGGA,161726.000,3214.6097,N,11052.2849,W,1,07,1.2,750.5,M,-27.6,M,,0000*6A

$GPGSA,A,3,17,02,28,24,10,12,04,,,,,,2.2,1.2,1.8*36

$GPRMC,161726.000,A,3214.6097,N,11052.2849,W,34.90,268.88,251013,,,A*43

$GPGGA,161727.000,3214.6096,N,11052.2965,W,1,07,1.2,750.4,M,-27.6,M,,0000*64

$GPGSA,A,3,17,02,28,24,10,12,04,,,,,,2.2,1.2,1.8*36

$GPRMC,161727.000,A,3214.6096,N,11052.2965,W,35.28,269.55,251013,,,A*4F

$GPGGA,161728.000,3214.6098,N,11052.3078,W,1,06,1.2,751.5,M,-27.6,M,,0000*60

$GPGSA,A,3,17,02,24,10,12,04,,,,,,,2.3,1.2,2.0*36

$GPGSV,2,1,08,04,73,080,18,02,56,201,32,24,47,276,31,17,34,050,25*77

$GPGSV,2,2,08,12,28,316,20,10,19,133,26,28,18,115,,20,04,044,*72

$GPRMC,161728.000,A,3214.6098,N,11052.3078,W,35.65,271.02,251013,,,A*48

$GPGGA,161729.000,3214.6101,N,11052.3191,W,1,06,1.2,752.3,M,-27.6,M,,0000*63

$GPGSA,A,3,17,02,24,10,12,04,,,,,,,2.3,1.2,2.0*36

$GPRMC,161729.000,A,3214.6101,N,11052.3191,W,35.52,271.39,251013,,,A*42

$GPGGA,161730.000,3214.6102,N,11052.3306,W,1,06,1.2,753.1,M,-27.6,M,,0000*67

$GPGSA,A,3,17,02,24,10,12,04,,,,,,,2.3,1.2,2.0*36

$GPRMC,161730.000,A,3214.6102,N,11052.3306,W,35.59,270.30,251013,,,A*46

$GPGGA,161731.000,3214.6103,N,11052.3421,W,1,06,1.2,753.7,M,-27.6,M,,0000*63

$GPGSA,A,3,17,02,24,10,12,04,,,,,,,2.3,1.2,2.0*36

$GPRMC,161731.000,A,3214.6103,N,11052.3421,W,35.53,269.91,251013,,,A*4D

$GPGGA,161732.000,3214.6104,N,11052.3539,W,1,06,1.2,753.3,M,-27.6,M,,0000*6B

$GPGSA,A,3,17,02,24,10,12,04,,,,,,,2.3,1.2,2.0*36

$GPRMC,161732.000,A,3214.6104,N,11052.3539,W,35.78,270.13,251013,,,A*4A

$GPGGA,161733.000,3214.6103,N,11052.3657,W,1,06,1.2,753.0,M,-27.6,M,,0000*65

$GPGSA,A,3,17,02,24,10,12,04,,,,,,,2.3,1.2,2.0*36

$GPGSV,2,1,08,04,73,080,17,02,56,201,32,24,47,276,31,17,34,050,25*78

$GPGSV,2,2,08,12,28,316,19,10,19,133,26,28,18,115,,20,04,044,15*7C

$GPRMC,161733.000,A,3214.6103,N,11052.3657,W,36.05,270.39,251013,,,A*46

$GPGGA,161734.000,3214.6103,N,11052.3775,W,1,06,1.2,752.6,M,-27.6,M,,0000*64

$GPGSA,A,3,17,02,24,10,12,04,,,,,,,2.3,1.2,2.0*36

$GPRMC,161734.000,A,3214.6103,N,11052.3775,W,35.91,270.05,251013,,,A*41

$GPGGA,161735.000,3214.6101,N,11052.3893,W,1,06,1.2,752.3,M,-27.6,M,,0000*65

$GPGSA,A,3,17,02,24,10,12,04,,,,,,,2.3,1.2,2.0*36

$GPRMC,161735.000,A,3214.6101,N,11052.3893,W,35.73,269.92,251013,,,A*4F

$GPGGA,161736.000,3214.6102,N,11052.4012,W,1,06,1.2,751.7,M,-27.6,M,,0000*64

$GPGSA,A,3,17,02,24,10,12,04,,,,,,,2.3,1.2,2.0*36

$GPRMC,161736.000,A,3214.6102,N,11052.4012,W,36.23,270.61,251013,,,A*4B

$GPGGA,161737.000,3214.6103,N,11052.4128,W,1,06,1.2,752.3,M,-27.6,M,,0000*6B

$GPGSA,A,3,17,02,24,10,12,04,,,,,,,2.3,1.2,2.0*36

$GPRMC,161737.000,A,3214.6103,N,11052.4128,W,35.92,270.16,251013,,,A*4A

$GPGGA,161738.000,3214.6104,N,11052.4248,W,1,06,1.2,751.9,M,-27.6,M,,0000*6F

$GPGSA,A,3,17,02,24,10,12,04,,,,,,,2.3,1.2,2.0*36

$GPGSV,3,1,09,04,73,080,16,02,56,201,32,24,47,276,31,17,34,050,24*78

$GPGSV,3,2,09,12,28,316,20,10,19,133,26,28,18,115,,20,04,044,15*76

$GPGSV,3,3,09,48,45,217,28*43

$GPRMC,161738.000,A,3214.6104,N,11052.4248,W,36.24,270.99,251013,,,A*4E

$GPGGA,161739.000,3214.6105,N,11052.4366,W,1,06,1.2,751.8,M,-27.6,M,,0000*63

$GPGSA,A,3,17,02,24,10,12,04,,,,,,,2.3,1.2,2.0*36

$GPRMC,161739.000,A,3214.6105,N,11052.4366,W,36.60,269.62,251013,,,A*4F

$GPGGA,161740.000,3214.6104,N,11052.4483,W,1,06,1.2,752.7,M,-27.6,M,,0000*6C

$GPGSA,A,3,17,02,24,10,12,04,,,,,,,2.3,1.2,2.0*36

$GPRMC,161740.000,A,3214.6104,N,11052.4483,W,36.17,270.09,251013,,,A*49

$GPGGA,161741.000,3214.6105,N,11052.4599,W,1,06,1.2,753.5,M,-27.6,M,,0000*65

$GPGSA,A,3,17,02,24,10,12,04,,,,,,,2.3,1.2,2.0*36

$GPRMC,161741.000,A,3214.6105,N,11052.4599,W,36.39,270.30,251013,,,A*45

$GPGGA,161742.000,3214.6106,N,11052.4719,W,1,06,1.2,753.0,M,-27.6,M,,0000*6A

$GPGSA,A,3,17,02,24,10,12,04,,,,,,,2.3,1.2,2.0*36

$GPRMC,161742.000,A,3214.6106,N,11052.4719,W,36.62,271.18,251013,,,A*4A

$GPGGA,161743.000,3214.6109,N,11052.4837,W,1,06,1.2,752.7,M,-27.6,M,,0000*61

$GPGSA,A,3,17,02,24,10,12,04,,,,,,,2.3,1.2,2.0*36

$GPGSV,3,1,09,04,73,080,15,02,56,201,32,24,47,276,31,17,34,050,24*7B

$GPGSV,3,2,09,12,28,316,20,10,19,133,25,28,18,115,,20,04,044,15*75

$GPGSV,3,3,09,48,45,217,29*42

$GPRMC,161743.000,A,3214.6109,N,11052.4837,W,36.42,271.03,251013,,,A*4F

$GPGGA,161744.000,3214.6111,N,11052.4953,W,1,06,1.2,752.3,M,-27.6,M,,0000*68

$GPGSA,A,3,17,02,24,10,12,04,,,,,,,2.3,1.2,2.0*36

$GPRMC,161744.000,A,3214.6111,N,11052.4953,W,35.13,270.75,251013,,,A*45

$GPGGA,161745.000,3214.6112,N,11052.5055,W,1,06,1.2,752.3,M,-27.6,M,,0000*64

$GPGSA,A,3,17,02,24,10,12,04,,,,,,,2.3,1.2,2.0*36

$GPRMC,161745.000,A,3214.6112,N,11052.5055,W,29.73,269.03,251013,,,A*4B

$GPGGA,161746.000,3214.6111,N,11052.5137,W,1,06,1.2,751.6,M,-27.6,M,,0000*67

$GPGSA,A,3,17,02,24,10,12,04,,,,,,,2.3,1.2,2.0*36

$GPRMC,161746.000,A,3214.6111,N,11052.5137,W,22.04,268.20,251013,,,A*45

$GPGGA,161747.000,3214.6110,N,11052.5191,W,1,06,1.2,751.8,M,-27.6,M,,0000*65

$GPGSA,A,3,17,02,24,10,12,04,,,,,,,2.3,1.2,2.0*36

$GPRMC,161747.000,A,3214.6110,N,11052.5191,W,15.54,268.75,251013,,,A*48

$GPGGA,161748.000,3214.6109,N,11052.5228,W,1,06,1.2,751.8,M,-27.6,M,,0000*63

$GPGSA,A,3,17,02,24,10,12,04,,,,,,,2.3,1.2,2.0*36

$GPGSV,3,1,09,04,73,080,15,02,56,201,32,24,47,276,31,17,34,050,23*7C

$GPGSV,3,2,09,12,28,316,22,10,19,133,26,28,18,115,,20,04,044,*70

$GPGSV,3,3,09,48,45,217,29*42

$GPRMC,161748.000,A,3214.6109,N,11052.5228,W,10.31,267.98,251013,,,A*44

$GPGGA,161749.000,3214.6107,N,11052.5248,W,1,06,1.2,753.5,M,-27.6,M,,0000*65

$GPGSA,A,3,17,02,24,10,12,04,,,,,,,2.3,1.2,2.0*36

$GPRMC,161749.000,A,3214.6107,N,11052.5248,W,5.70,268.98,251013,,,A*73

$GPGGA,161750.000,3214.6105,N,11052.5257,W,1,06,1.2,754.4,M,-27.6,M,,0000*67

$GPGSA,A,3,17,02,24,10,12,04,,,,,,,2.3,1.2,2.0*36

$GPRMC,161750.000,A,3214.6105,N,11052.5257,W,2.13,279.73,251013,,,A*70

$GPGGA,161751.000,3214.6105,N,11052.5257,W,1,07,1.2,755.4,M,-27.6,M,,0000*66

$GPGSA,A,3,17,02,28,24,10,12,04,,,,,,2.2,1.2,1.8*36

$GPRMC,161751.000,A,3214.6105,N,11052.5257,W,0.60,11.28,251013,,,A*45

$GPGGA,161752.000,3214.6109,N,11052.5249,W,1,07,1.2,755.9,M,-27.6,M,,0000*6B

$GPGSA,A,3,17,02,28,24,10,12,04,,,,,,2.2,1.2,1.8*36

$GPRMC,161752.000,A,3214.6109,N,11052.5249,W,0.00,11.28,251013,,,A*43

$GPGGA,161753.000,3214.6109,N,11052.5249,W,1,07,1.2,755.9,M,-27.6,M,,0000*6A

$GPGSA,A,3,17,02,28,24,10,12,04,,,,,,2.2,1.2,1.8*36

$GPGSV,3,1,09,04,73,080,15,02,56,201,33,24,47,276,31,17,34,050,16*7B

$GPGSV,3,2,09,12,28,316,12,10,19,133,26,28,18,115,21,20,04,044,*70

$GPGSV,3,3,09,48,45,217,29*42

$GPRMC,161753.000,A,3214.6109,N,11052.5249,W,0.00,11.28,251013,,,A*42

$GPGGA,161754.000,3214.6126,N,11052.5229,W,1,07,1.2,758.2,M,-27.6,M,,0000*60

$GPGSA,A,3,17,02,28,24,10,12,04,,,,,,2.2,1.2,1.8*36

$GPRMC,161754.000,A,3214.6126,N,11052.5229,W,4.26,36.16,251013,,,A*46

$GPGGA,161755.000,3214.6134,N,11052.5219,W,1,07,1.2,759.4,M,-27.6,M,,0000*66

$GPGSA,A,3,17,02,28,24,10,12,04,,,,,,2.2,1.2,1.8*36

$GPRMC,161755.000,A,3214.6134,N,11052.5219,W,3.49,42.02,251013,,,A*4F

$GPGGA,161756.000,3214.6137,N,11052.5212,W,1,07,1.2,760.3,M,-27.6,M,,0000*60

$GPGSA,A,3,17,02,28,24,10,12,04,,,,,,2.2,1.2,1.8*36

$GPRMC,161756.000,A,3214.6137,N,11052.5212,W,2.17,45.64,251013,,,A*49

$GPGGA,161757.000,3214.6138,N,11052.5208,W,1,07,1.2,761.3,M,-27.6,M,,0000*64

$GPGSA,A,3,17,02,28,24,10,12,04,,,,,,2.2,1.2,1.8*36

$GPRMC,161757.000,A,3214.6138,N,11052.5208,W,1.41,50.32,251013,,,A*4B

$GPGGA,161758.000,3214.6139,N,11052.5201,W,1,07,1.2,763.1,M,-27.6,M,,0000*63

$GPGSA,A,3,17,02,28,24,10,12,04,,,,,,2.2,1.2,1.8*36

$GPGSV,3,1,09,04,73,080,14,02,56,201,33,24,47,276,32,17,34,050,17*78

$GPGSV,3,2,09,12,28,316,12,10,19,133,26,28,18,115,21,20,04,044,*70

$GPGSV,3,3,09,48,45,217,29*42

$GPRMC,161758.000,A,3214.6139,N,11052.5201,W,0.00,50.32,251013,,,A*48

$GPGGA,161759.000,3214.6139,N,11052.5201,W,1,06,1.5,763.1,M,-27.6,M,,0000*64

$GPGSA,A,3,17,02,28,24,10,04,,,,,,,2.9,1.5,2.4*36

$GPRMC,161759.000,A,3214.6139,N,11052.5201,W,0.00,50.32,251013,,,A*49

$GPGGA,161800.000,3214.6147,N,11052.5188,W,1,06,1.5,766.3,M,-27.6,M,,0000*6B

$GPGSA,A,3,17,02,28,24,10,04,,,,,,,2.9,1.5,2.4*36

$GPRMC,161800.000,A,3214.6147,N,11052.5188,W,3.51,41.72,251013,,,A*42

$GPGGA,161801.000,3214.6151,N,11052.5180,W,1,06,1.5,768.2,M,-27.6,M,,0000*6A

$GPGSA,A,3,17,02,28,24,10,04,,,,,,,2.9,1.5,2.4*36

$GPRMC,161801.000,A,3214.6151,N,11052.5180,W,3.82,40.29,251013,,,A*4D

$GPGGA,161802.000,3214.6154,N,11052.5175,W,1,06,1.5,770.4,M,-27.6,M,,0000*69

$GPGSA,A,3,17,02,28,24,10,04,,,,,,,2.9,1.5,2.4*36

$GPRMC,161802.000,A,3214.6154,N,11052.5175,W,3.09,36.85,251013,,,A*45

$GPGGA,161803.000,3214.6157,N,11052.5171,W,1,06,1.5,771.6,M,-27.6,M,,0000*6C

$GPGSA,A,3,17,02,28,24,10,04,,,,,,,2.9,1.5,2.4*36

$GPGSV,3,1,09,04,73,080,13,02,56,201,33,24,47,276,32,17,34,050,18*70

$GPGSV,3,2,09,12,28,316,,10,19,133,27,28,18,115,21,20,04,044,*72

$GPGSV,3,3,09,48,45,217,28*43

$GPRMC,161803.000,A,3214.6157,N,11052.5171,W,3.24,42.42,251013,,,A*44

$GPGGA,161804.000,3214.6157,N,11052.5169,W,1,06,1.5,772.4,M,-27.6,M,,0000*63

$GPGSA,A,3,17,02,28,24,10,04,,,,,,,2.9,1.5,2.4*36

$GPRMC,161804.000,A,3214.6157,N,11052.5169,W,2.27,45.35,251013,,,A*4F

$GPGGA,161805.000,3214.6156,N,11052.5169,W,1,06,1.5,772.4,M,-27.6,M,,0000*63

$GPGSA,A,3,17,02,28,24,10,04,,,,,,,2.9,1.5,2.4*36

$GPRMC,161805.000,A,3214.6156,N,11052.5169,W,1.29,59.55,251013,,,A*49

$GPGGA,161806.000,3214.6152,N,11052.5171,W,1,06,1.5,771.8,M,-27.6,M,,0000*62

$GPGSA,A,3,17,02,28,24,10,04,,,,,,,2.9,1.5,2.4*36

$GPRMC,161806.000,A,3214.6152,N,11052.5171,W,0.00,59.55,251013,,,A*4D

$GPGGA,161807.000,3214.6152,N,11052.5171,W,1,06,1.5,771.8,M,-27.6,M,,0000*63

$GPGSA,A,3,17,02,28,24,10,04,,,,,,,2.9,1.5,2.4*36

$GPRMC,161807.000,A,3214.6152,N,11052.5171,W,0.00,59.55,251013,,,A*4C

$GPGGA,161808.000,3214.6152,N,11052.5171,W,1,06,1.5,771.8,M,-27.6,M,,0000*6C

$GPGSA,A,3,17,02,28,24,10,04,,,,,,,2.9,1.5,2.4*36

$GPGSV,3,1,09,04,73,080,14,02,56,201,33,24,47,276,32,17,34,050,19*76

$GPGSV,3,2,09,12,28,316,,10,19,133,28,28,18,115,21,20,04,044,*7D

$GPGSV,3,3,09,48,45,217,24*4F

$GPRMC,161808.000,A,3214.6152,N,11052.5171,W,0.00,59.55,251013,,,A*43

$GPGGA,161809.000,3214.6152,N,11052.5171,W,1,06,1.5,771.8,M,-27.6,M,,0000*6D

$GPGSA,A,3,17,02,28,24,10,04,,,,,,,2.9,1.5,2.4*36

$GPRMC,161809.000,A,3214.6152,N,11052.5171,W,0.00,59.55,251013,,,A*42

$GPGGA,161810.000,3214.6152,N,11052.5171,W,1,07,1.2,771.8,M,-27.6,M,,0000*63

$GPGSA,A,3,17,02,28,24,12,10,04,,,,,,2.2,1.2,1.8*36

$GPRMC,161810.000,A,3214.6152,N,11052.5171,W,0.00,59.55,251013,,,A*4A

$GPGGA,161811.000,3214.6152,N,11052.5171,W,1,07,1.2,771.8,M,-27.6,M,,0000*62

$GPGSA,A,3,17,02,28,24,12,10,04,,,,,,2.2,1.2,1.8*36

$GPRMC,161811.000,A,3214.6152,N,11052.5171,W,0.00,59.55,251013,,,A*4B

$GPGGA,161812.000,3214.6152,N,11052.5171,W,1,07,1.2,771.8,M,-27.6,M,,0000*61

$GPGSA,A,3,17,02,28,24,12,10,04,,,,,,2.2,1.2,1.8*36

$GPRMC,161812.000,A,3214.6152,N,11052.5171,W,0.00,59.55,251013,,,A*48

$GPGGA,161813.000,3214.6152,N,11052.5171,W,1,07,1.2,771.8,M,-27.6,M,,0000*60

$GPGSA,A,3,17,02,28,24,12,10,04,,,,,,2.2,1.2,1.8*36

$GPGSV,3,1,09,04,73,080,14,02,56,201,33,24,47,276,32,17,34,050,22*7E

$GPGSV,3,2,09,12,28,316,24,10,19,133,22,28,18,115,22,20,04,044,*72

$GPGSV,3,3,09,48,45,217,31*4B

$GPRMC,161813.000,A,3214.6152,N,11052.5171,W,0.00,59.55,251013,,,A*49

$GPGGA,161814.000,3214.6152,N,11052.5171,W,1,07,1.2,771.8,M,-27.6,M,,0000*67

$GPGSA,A,3,17,02,28,24,12,10,04,,,,,,2.2,1.2,1.8*36

$GPRMC,161814.000,A,3214.6152,N,11052.5171,W,0.00,59.55,251013,,,A*4E

$GPGGA,161815.000,3214.6152,N,11052.5171,W,1,06,1.3,771.8,M,-27.6,M,,0000*66

$GPGSA,A,3,17,02,28,24,12,10,,,,,,,3.1,1.3,2.8*32

$GPRMC,161815.000,A,3214.6152,N,11052.5171,W,0.00,59.55,251013,,,A*4F

$GPGGA,161816.000,3214.6152,N,11052.5171,W,1,06,1.3,771.8,M,-27.6,M,,0000*65

$GPGSA,A,3,17,02,28,24,12,10,,,,,,,3.1,1.3,2.8*32

$GPRMC,161816.000,A,3214.6152,N,11052.5171,W,0.00,59.55,251013,,,A*4C

$GPGGA,161817.000,3214.6152,N,11052.5171,W,1,06,1.3,771.8,M,-27.6,M,,0000*64

$GPGSA,A,3,17,02,28,24,12,10,,,,,,,3.1,1.3,2.8*32

$GPRMC,161817.000,A,3214.6152,N,11052.5171,W,0.00,59.55,251013,,,A*4D

$GPGGA,161818.000,3214.6152,N,11052.5171,W,1,06,1.3,771.8,M,-27.6,M,,0000*6B

$GPGSA,A,3,17,02,28,24,12,10,,,,,,,3.1,1.3,2.8*32

$GPGSV,3,1,09,04,73,080,,02,56,201,33,24,47,276,32,17,34,050,22*7B

$GPGSV,3,2,09,12,28,316,27,10,19,133,22,28,18,115,23,20,04,044,13*72

$GPGSV,3,3,09,48,45,217,32*48

$GPRMC,161818.000,A,3214.6152,N,11052.5171,W,0.00,59.55,251013,,,A*42

$GPGGA,161819.000,3214.6152,N,11052.5171,W,1,06,1.3,771.8,M,-27.6,M,,0000*6A

$GPGSA,A,3,17,02,28,24,12,10,,,,,,,3.1,1.3,2.8*32

$GPRMC,161819.000,A,3214.6152,N,11052.5171,W,0.00,59.55,251013,,,A*43

$GPGGA,161820.000,3214.6152,N,11052.5171,W,1,05,1.3,771.8,M,-27.6,M,,0000*63

$GPGSA,A,3,17,02,24,12,10,,,,,,,,3.3,1.3,3.0*33

$GPRMC,161820.000,A,3214.6152,N,11052.5171,W,0.00,59.55,251013,,,A*49

$GPGGA,161821.000,3214.6152,N,11052.5171,W,1,06,1.3,771.8,M,-27.6,M,,0000*61

$GPGSA,A,3,17,02,24,12,10,28,,,,,,,3.1,1.3,2.8*32

$GPRMC,161821.000,A,3214.6152,N,11052.5171,W,0.00,59.55,251013,,,A*48

$GPGGA,161822.000,3214.6152,N,11052.5171,W,1,06,1.3,771.8,M,-27.6,M,,0000*62

$GPGSA,A,3,17,02,24,12,10,28,,,,,,,3.1,1.3,2.8*32

$GPRMC,161822.000,A,3214.6152,N,11052.5171,W,0.00,59.55,251013,,,A*4B

$GPGGA,161823.000,3214.6152,N,11052.5171,W,1,06,1.3,771.8,M,-27.6,M,,0000*63

$GPGSA,A,3,17,02,24,12,10,28,,,,,,,3.1,1.3,2.8*32

$GPGSV,3,1,09,04,73,080,,02,56,201,32,24,47,276,33,17,34,050,22*7B

$GPGSV,3,2,09,12,28,316,27,10,19,133,27,28,18,115,26,20,04,044,15*74

$GPGSV,3,3,09,48,45,217,30*4A

$GPRMC,161823.000,A,3214.6152,N,11052.5171,W,0.00,59.55,251013,,,A*4A

$GPGGA,161824.000,3214.6152,N,11052.5171,W,1,06,1.3,771.8,M,-27.6,M,,0000*64

$GPGSA,A,3,17,02,24,12,10,28,,,,,,,3.1,1.3,2.8*32

$GPRMC,161824.000,A,3214.6152,N,11052.5171,W,0.00,59.55,251013,,,A*4D

$GPGGA,161825.000,3214.6152,N,11052.5171,W,1,05,1.4,771.8,M,-27.6,M,,0000*61

$GPGSA,A,3,17,02,24,12,28,,,,,,,,3.5,1.4,3.2*3B

$GPRMC,161825.000,A,3214.6152,N,11052.5171,W,0.00,59.55,251013,,,A*4C

$GPGGA,161826.000,3214.6152,N,11052.5171,W,1,07,1.2,771.8,M,-27.6,M,,0000*66

$GPGSA,A,3,17,02,04,24,12,10,28,,,,,,2.2,1.2,1.8*36

$GPRMC,161826.000,A,3214.6152,N,11052.5171,W,0.00,59.55,251013,,,A*4F

$GPGGA,161827.000,3214.6152,N,11052.5171,W,1,07,1.2,771.8,M,-27.6,M,,0000*67

$GPGSA,A,3,17,02,04,24,12,10,28,,,,,,2.2,1.2,1.8*36

$GPRMC,161827.000,A,3214.6152,N,11052.5171,W,0.00,59.55,251013,,,A*4E

$GPGGA,161828.000,3214.6152,N,11052.5171,W,1,07,1.2,771.8,M,-27.6,M,,0000*68

$GPGSA,A,3,17,02,04,24,12,10,28,,,,,,2.2,1.2,1.8*36

$GPGSV,3,1,09,04,73,080,22,02,56,201,32,24,47,276,33,17,34,050,24*7D

$GPGSV,3,2,09,12,28,316,25,10,19,133,17,28,18,115,25,20,04,044,15*76

$GPGSV,3,3,09,48,45,217,31*4B

$GPRMC,161828.000,A,3214.6152,N,11052.5171,W,0.00,59.55,251013,,,A*41

$GPGGA,161829.000,3214.6152,N,11052.5171,W,1,07,1.2,771.8,M,-27.6,M,,0000*69

$GPGSA,A,3,17,02,04,24,12,10,28,,,,,,2.2,1.2,1.8*36

$GPRMC,161829.000,A,3214.6152,N,11052.5171,W,0.00,59.55,251013,,,A*40

$GPGGA,161830.000,3214.6152,N,11052.5171,W,1,07,1.2,771.8,M,-27.6,M,,0000*61

$GPGSA,A,3,17,02,04,24,12,10,28,,,,,,2.2,1.2,1.8*36

$GPRMC,161830.000,A,3214.6152,N,11052.5171,W,0.00,59.55,251013,,,A*48

$GPGGA,161831.000,3214.6152,N,11052.5171,W,1,07,1.2,771.8,M,-27.6,M,,0000*60

$GPGSA,A,3,17,02,04,24,12,10,28,,,,,,2.2,1.2,1.8*36

$GPRMC,161831.000,A,3214.6152,N,11052.5171,W,0.00,59.55,251013,,,A*49

$GPGGA,161832.000,3214.6152,N,11052.5171,W,1,07,1.2,771.8,M,-27.6,M,,0000*63

$GPGSA,A,3,17,02,04,24,12,10,28,,,,,,2.2,1.2,1.8*36

$GPRMC,161832.000,A,3214.6152,N,11052.5171,W,0.00,59.55,251013,,,A*4A

$GPGGA,161833.000,3214.6152,N,11052.5171,W,1,07,1.2,771.8,M,-27.6,M,,0000*62

$GPGSA,A,3,17,02,04,24,12,10,28,,,,,,2.2,1.2,1.8*36

$GPGSV,3,1,09,04,73,080,21,02,56,201,32,24,47,276,29,17,34,050,25*74

$GPGSV,3,2,09,12,28,316,32,10,19,133,25,28,18,115,25,20,04,044,14*70

$GPGSV,3,3,09,48,45,217,28*43

$GPRMC,161833.000,A,3214.6152,N,11052.5171,W,0.00,59.55,251013,,,A*4B

$GPGGA,161834.000,3214.6152,N,11052.5171,W,1,07,1.2,771.8,M,-27.6,M,,0000*65

$GPGSA,A,3,17,02,04,24,12,10,28,,,,,,2.2,1.2,1.8*36

$GPRMC,161834.000,A,3214.6152,N,11052.5171,W,0.00,59.55,251013,,,A*4C

$GPGGA,161835.000,3214.6152,N,11052.5171,W,1,07,1.2,771.8,M,-27.6,M,,0000*64

$GPGSA,A,3,17,02,04,24,12,10,28,,,,,,2.2,1.2,1.8*36

$GPRMC,161835.000,A,3214.6152,N,11052.5171,W,0.00,59.55,251013,,,A*4D

$GPGGA,161836.000,3214.6152,N,11052.5171,W,1,07,1.2,771.8,M,-27.6,M,,0000*67

$GPGSA,A,3,17,02,04,24,12,10,28,,,,,,2.2,1.2,1.8*36

$GPRMC,161836.000,A,3214.6152,N,11052.5171,W,0.00,59.55,251013,,,A*4E

$GPGGA,161837.000,3214.6152,N,11052.5171,W,1,07,1.2,771.8,M,-27.6,M,,0000*66

$GPGSA,A,3,17,02,04,24,12,10,28,,,,,,2.2,1.2,1.8*36

$GPRMC,161837.000,A,3214.6152,N,11052.5171,W,0.00,59.55,251013,,,A*4F

$GPGGA,161838.000,3214.6152,N,11052.5171,W,1,07,1.2,771.8,M,-27.6,M,,0000*69

$GPGSA,A,3,17,02,04,24,12,10,28,,,,,,2.2,1.2,1.8*36

$GPGSV,2,1,08,04,73,080,21,02,56,201,32,24,47,276,28,17,34,050,25*75

$GPGSV,2,2,08,12,28,316,32,10,19,133,24,28,18,115,24,20,04,044,16*72

$GPRMC,161838.000,A,3214.6152,N,11052.5171,W,0.00,59.55,251013,,,A*40

$GPGGA,161839.000,3214.6152,N,11052.5171,W,1,07,1.2,771.8,M,-27.6,M,,0000*68

$GPGSA,A,3,17,02,04,24,12,10,28,,,,,,2.2,1.2,1.8*36

$GPRMC,161839.000,A,3214.6152,N,11052.5171,W,0.00,59.55,251013,,,A*41

$GPGGA,161840.000,3214.6152,N,11052.5171,W,1,07,1.2,771.8,M,-27.6,M,,0000*66

$GPGSA,A,3,17,02,04,24,12,10,28,,,,,,2.2,1.2,1.8*36

$GPRMC,161840.000,A,3214.6152,N,11052.5171,W,0.00,59.55,251013,,,A*4F

$GPGGA,161841.000,3214.6152,N,11052.5171,W,1,07,1.2,771.8,M,-27.6,M,,0000*67

$GPGSA,A,3,17,02,04,24,12,10,28,,,,,,2.2,1.2,1.8*36

$GPRMC,161841.000,A,3214.6152,N,11052.5171,W,0.00,59.55,251013,,,A*4E

$GPGGA,161842.000,3214.6152,N,11052.5171,W,1,07,1.2,771.8,M,-27.6,M,,0000*64

$GPGSA,A,3,17,02,04,24,12,10,28,,,,,,2.2,1.2,1.8*36

$GPRMC,161842.000,A,3214.6152,N,11052.5171,W,0.00,59.55,251013,,,A*4D

$GPGGA,161843.000,3214.6152,N,11052.5171,W,1,07,1.2,771.8,M,-27.6,M,,0000*65

$GPGSA,A,3,17,02,04,24,12,10,28,,,,,,2.2,1.2,1.8*36

$GPGSV,2,1,08,04,73,080,20,02,56,201,32,24,47,276,29,17,34,050,25*75

$GPGSV,2,2,08,12,28,316,33,10,19,133,24,28,18,115,23,20,04,044,18*7A

$GPRMC,161843.000,A,3214.6152,N,11052.5171,W,0.00,59.55,251013,,,A*4C

$GPGGA,161844.000,3214.6152,N,11052.5171,W,1,07,1.2,771.8,M,-27.6,M,,0000*62

$GPGSA,A,3,17,02,04,24,12,10,28,,,,,,2.2,1.2,1.8*36

$GPRMC,161844.000,A,3214.6152,N,11052.5171,W,0.00,59.55,251013,,,A*4B

$GPGGA,161845.000,3214.6152,N,11052.5171,W,1,07,1.2,771.8,M,-27.6,M,,0000*63

$GPGSA,A,3,17,02,04,24,12,10,28,,,,,,2.2,1.2,1.8*36

$GPRMC,161845.000,A,3214.6152,N,11052.5171,W,0.00,59.55,251013,,,A*4A

$GPGGA,161846.000,3214.6152,N,11052.5171,W,1,07,1.2,771.8,M,-27.6,M,,0000*60

$GPGSA,A,3,17,02,04,24,12,10,28,,,,,,2.2,1.2,1.8*36

$GPRMC,161846.000,A,3214.6152,N,11052.5171,W,0.00,59.55,251013,,,A*49

$GPGGA,161847.000,3214.6152,N,11052.5171,W,1,07,1.2,771.8,M,-27.6,M,,0000*61

$GPGSA,A,3,17,02,04,24,12,10,28,,,,,,2.2,1.2,1.8*36

$GPRMC,161847.000,A,3214.6152,N,11052.5171,W,0.00,59.55,251013,,,A*48

$GPGGA,161848.000,3214.6152,N,11052.5171,W,1,07,1.2,771.8,M,-27.6,M,,0000*6E

$GPGSA,A,3,17,02,04,24,12,10,28,,,,,,2.2,1.2,1.8*36

$GPGSV,2,1,08,04,73,080,20,02,56,201,32,24,47,276,29,17,34,050,26*76

$GPGSV,2,2,08,12,28,316,33,10,19,133,25,28,18,115,23,20,04,044,18*7B

$GPRMC,161848.000,A,3214.6152,N,11052.5171,W,0.00,59.55,251013,,,A*47

$GPGGA,161849.000,3214.6152,N,11052.5171,W,1,07,1.2,771.8,M,-27.6,M,,0000*6F

$GPGSA,A,3,17,02,04,24,12,10,28,,,,,,2.2,1.2,1.8*36

$GPRMC,161849.000,A,3214.6152,N,11052.5171,W,0.00,59.55,251013,,,A*46

$GPGGA,161850.000,3214.6152,N,11052.5171,W,1,07,1.2,771.8,M,-27.6,M,,0000*67

$GPGSA,A,3,17,02,04,24,12,10,28,,,,,,2.2,1.2,1.8*36

$GPRMC,161850.000,A,3214.6152,N,11052.5171,W,0.00,59.55,251013,,,A*4E

$GPGGA,161851.000,3214.6152,N,11052.5171,W,1,07,1.2,771.8,M,-27.6,M,,0000*66

$GPGSA,A,3,17,02,04,24,12,10,28,,,,,,2.2,1.2,1.8*36

$GPRMC,161851.000,A,3214.6152,N,11052.5171,W,0.00,59.55,251013,,,A*4F

$GPGGA,161852.000,3214.6152,N,11052.5171,W,1,07,1.2,771.8,M,-27.6,M,,0000*65

$GPGSA,A,3,17,02,04,24,12,10,28,,,,,,2.2,1.2,1.8*36

$GPRMC,161852.000,A,3214.6152,N,11052.5171,W,0.00,59.55,251013,,,A*4C

$GPGGA,161853.000,3214.6152,N,11052.5171,W,1,07,1.2,771.8,M,-27.6,M,,0000*64

$GPGSA,A,3,17,02,04,24,12,10,28,,,,,,2.2,1.2,1.8*36

$GPGSV,2,1,08,04,73,080,20,02,56,201,32,24,47,276,30,17,34,050,26*7E

$GPGSV,2,2,08,12,28,316,33,10,19,133,25,28,18,115,23,20,04,044,17*74

$GPRMC,161853.000,A,3214.6152,N,11052.5171,W,0.00,59.55,251013,,,A*4D

$GPGGA,161854.000,3214.6152,N,11052.5171,W,1,06,1.2,771.8,M,-27.6,M,,0000*62

$GPGSA,A,3,17,02,04,24,12,10,,,,,,,2.3,1.2,2.0*36

$GPRMC,161854.000,A,3214.6152,N,11052.5171,W,0.00,59.55,251013,,,A*4A

$GPGGA,161855.000,3214.6152,N,11052.5171,W,1,07,1.2,771.8,M,-27.6,M,,0000*62

$GPGSA,A,3,17,02,04,24,12,10,28,,,,,,2.2,1.2,1.8*36

$GPRMC,161855.000,A,3214.6152,N,11052.5171,W,0.00,59.55,251013,,,A*4B

$GPGGA,161856.000,3214.6152,N,11052.5171,W,1,07,1.2,771.8,M,-27.6,M,,0000*61

$GPGSA,A,3,17,02,04,24,12,10,28,,,,,,2.2,1.2,1.8*36

$GPRMC,161856.000,A,3214.6152,N,11052.5171,W,0.00,59.55,251013,,,A*48

$GPGGA,161857.000,3214.6152,N,11052.5171,W,1,07,1.2,771.8,M,-27.6,M,,0000*60

$GPGSA,A,3,17,02,04,24,12,10,28,,,,,,2.2,1.2,1.8*36

$GPRMC,161857.000,A,3214.6152,N,11052.5171,W,0.00,59.55,251013,,,A*49

$GPGGA,161858.000,3214.6152,N,11052.5171,W,1,07,1.2,771.8,M,-27.6,M,,0000*6F

$GPGSA,A,3,17,02,04,24,12,10,28,,,,,,2.2,1.2,1.8*36

$GPGSV,2,1,08,04,73,080,21,02,56,201,32,24,47,276,30,17,34,050,27*7E

$GPGSV,2,2,08,12,28,316,33,10,19,133,26,28,18,115,22,20,04,044,17*76

$GPRMC,161858.000,A,3214.6152,N,11052.5171,W,0.00,59.55,251013,,,A*46

$GPGGA,161859.000,3214.6152,N,11052.5171,W,1,07,1.2,771.8,M,-27.6,M,,0000*6E

$GPGSA,A,3,17,02,04,24,12,10,28,,,,,,2.2,1.2,1.8*36

$GPRMC,161859.000,A,3214.6152,N,11052.5171,W,0.00,59.55,251013,,,A*47

$GPGGA,161900.000,3214.6152,N,11052.5171,W,1,07,1.2,771.8,M,-27.6,M,,0000*63

$GPGSA,A,3,17,02,04,24,12,10,28,,,,,,2.2,1.2,1.8*36

$GPRMC,161900.000,A,3214.6152,N,11052.5171,W,0.00,59.55,251013,,,A*4A

$GPGGA,161901.000,3214.6152,N,11052.5171,W,1,07,1.2,771.8,M,-27.6,M,,0000*62

$GPGSA,A,3,17,02,04,24,12,10,28,,,,,,2.2,1.2,1.8*36

$GPRMC,161901.000,A,3214.6152,N,11052.5171,W,0.00,59.55,251013,,,A*4B

$GPGGA,161902.000,3214.6152,N,11052.5171,W,1,07,1.2,771.8,M,-27.6,M,,0000*61

$GPGSA,A,3,17,02,04,24,12,10,28,,,,,,2.2,1.2,1.8*36

$GPRMC,161902.000,A,3214.6152,N,11052.5171,W,0.00,59.55,251013,,,A*48

$GPGGA,161903.000,3214.6152,N,11052.5171,W,1,07,1.2,771.8,M,-27.6,M,,0000*60

$GPGSA,A,3,17,02,04,24,12,10,28,,,,,,2.2,1.2,1.8*36

$GPGSV,2,1,08,04,73,080,21,02,56,201,32,24,47,276,30,17,34,050,27*7E

$GPGSV,2,2,08,12,28,316,33,10,19,133,26,28,18,115,22,20,04,044,16*77

$GPRMC,161903.000,A,3214.6152,N,11052.5171,W,0.00,59.55,251013,,,A*49

$GPGGA,161904.000,3214.6152,N,11052.5171,W,1,07,1.2,771.8,M,-27.6,M,,0000*67

$GPGSA,A,3,17,02,04,24,12,10,28,,,,,,2.2,1.2,1.8*36

$GPRMC,161904.000,A,3214.6152,N,11052.5171,W,0.00,59.55,251013,,,A*4E

$GPGGA,161905.000,3214.6152,N,11052.5171,W,1,07,1.2,771.8,M,-27.6,M,,0000*66

$GPGSA,A,3,17,02,04,24,12,10,28,,,,,,2.2,1.2,1.8*36

$GPRMC,161905.000,A,3214.6152,N,11052.5171,W,0.00,59.55,251013,,,A*4F

$GPGGA,161906.000,3214.6152,N,11052.5171,W,1,07,1.2,771.8,M,-27.6,M,,0000*65

$GPGSA,A,3,17,02,04,24,12,10,28,,,,,,2.2,1.2,1.8*36

$GPRMC,161906.000,A,3214.6152,N,11052.5171,W,0.00,59.55,251013,,,A*4C

$GPGGA,161907.000,3214.6152,N,11052.5171,W,1,07,1.2,771.8,M,-27.6,M,,0000*64

$GPGSA,A,3,17,02,04,24,12,10,28,,,,,,2.2,1.2,1.8*36

$GPRMC,161907.000,A,3214.6152,N,11052.5171,W,0.00,59.55,251013,,,A*4D

$GPGGA,161908.000,3214.6102,N,11052.5214,W,1,07,1.2,760.5,M,-27.6,M,,0000*63

$GPGSA,A,3,17,02,04,24,12,10,28,,,,,,2.2,1.2,1.8*36

$GPGSV,2,1,08,04,73,080,21,02,56,201,32,24,47,276,30,17,34,050,28*71

$GPGSV,2,2,08,12,28,316,33,10,19,133,26,28,18,115,22,20,04,044,15*74

$GPRMC,161908.000,A,3214.6102,N,11052.5214,W,5.05,273.64,251013,,,A*7F

$GPGGA,161909.000,3214.6102,N,11052.5242,W,1,07,1.2,760.7,M,-27.6,M,,0000*63

$GPGSA,A,3,17,02,04,24,12,10,28,,,,,,2.2,1.2,1.8*36

$GPRMC,161909.000,A,3214.6102,N,11052.5242,W,10.60,271.73,251013,,,A*4E

$GPGGA,161910.000,3214.6102,N,11052.5287,W,1,07,1.2,760.6,M,-27.6,M,,0000*63

$GPGSA,A,3,17,02,04,24,12,10,28,,,,,,2.2,1.2,1.8*36

$GPRMC,161910.000,A,3214.6102,N,11052.5287,W,15.06,271.00,251013,,,A*4E

$GPGGA,161911.000,3214.6101,N,11052.5346,W,1,07,1.2,759.5,M,-27.6,M,,0000*64

$GPGSA,A,3,17,02,04,24,12,10,28,,,,,,2.2,1.2,1.8*36

$GPRMC,161911.000,A,3214.6101,N,11052.5346,W,18.66,270.10,251013,,,A*4B

$GPGGA,161912.000,3214.6099,N,11052.5416,W,1,07,1.2,758.2,M,-27.6,M,,0000*63

$GPGSA,A,3,17,02,04,24,12,10,28,,,,,,2.2,1.2,1.8*36

$GPRMC,161912.000,A,3214.6099,N,11052.5416,W,21.61,269.41,251013,,,A*4B

$GPGGA,161913.000,3214.6097,N,11052.5492,W,1,07,1.2,758.1,M,-27.6,M,,0000*63

$GPGSA,A,3,17,02,04,24,12,10,28,,,,,,2.2,1.2,1.8*36

$GPGSV,2,1,08,04,73,080,21,02,56,201,32,24,47,276,30,17,34,050,27*7E

$GPGSV,2,2,08,12,28,316,32,10,19,133,26,28,18,115,21,20,04,044,*72

$GPRMC,161913.000,A,3214.6097,N,11052.5492,W,23.67,268.81,251013,,,A*41

$GPGGA,161914.000,3214.6096,N,11052.5576,W,1,07,1.2,758.0,M,-27.6,M,,0000*6F

$GPGSA,A,3,17,02,04,24,12,10,28,,,,,,2.2,1.2,1.8*36

$GPRMC,161914.000,A,3214.6096,N,11052.5576,W,25.93,269.71,251013,,,A*4F

$GPGGA,161915.000,3214.6096,N,11052.5667,W,1,07,1.2,757.9,M,-27.6,M,,0000*6B

$GPGSA,A,3,17,02,04,24,12,10,28,,,,,,2.2,1.2,1.8*36

$GPRMC,161915.000,A,3214.6096,N,11052.5667,W,27.71,269.76,251013,,,A*44

$GPGGA,161916.000,3214.6096,N,11052.5761,W,1,07,1.2,758.1,M,-27.6,M,,0000*68

$GPGSA,A,3,17,02,04,24,12,10,28,,,,,,2.2,1.2,1.8*36

$GPRMC,161916.000,A,3214.6096,N,11052.5761,W,28.95,269.61,251013,,,A*43

$GPGGA,161917.000,3214.6095,N,11052.5861,W,1,07,1.2,758.3,M,-27.6,M,,0000*67

$GPGSA,A,3,17,02,04,24,12,10,28,,,,,,2.2,1.2,1.8*36

$GPRMC,161917.000,A,3214.6095,N,11052.5861,W,30.29,269.42,251013,,,A*41

$GPGGA,161918.000,3214.6093,N,11052.5964,W,1,07,1.2,757.7,M,-27.6,M,,0000*61

$GPGSA,A,3,17,02,04,24,12,10,28,,,,,,2.2,1.2,1.8*36

$GPGSV,3,1,09,04,73,076,21,02,58,202,31,24,47,274,30,17,33,051,27*7D

$GPGSV,3,2,09,12,29,317,32,10,20,132,26,28,17,116,22,20,03,043,*76

$GPGSV,3,3,09,05,,177,*44

$GPRMC,161918.000,A,3214.6093,N,11052.5964,W,30.78,270.04,251013,,,A*42

$GPGGA,161919.000,3214.6093,N,11052.6069,W,1,07,1.2,757.2,M,-27.6,M,,0000*62

$GPGSA,A,3,17,02,04,24,12,10,28,,,,,,2.2,1.2,1.8*36

$GPRMC,161919.000,A,3214.6093,N,11052.6069,W,31.63,270.08,251013,,,A*43

$GPGGA,161920.000,3214.6091,N,11052.6177,W,1,07,1.2,755.8,M,-27.6,M,,0000*6C

$GPGSA,A,3,17,02,04,24,12,10,28,,,,,,2.2,1.2,1.8*36

$GPRMC,161920.000,A,3214.6091,N,11052.6177,W,32.24,269.87,251013,,,A*4A

$GPGGA,161921.000,3214.6090,N,11052.6286,W,1,07,1.2,755.1,M,-27.6,M,,0000*68

$GPGSA,A,3,17,02,04,24,12,10,28,,,,,,2.2,1.2,1.8*36

$GPRMC,161921.000,A,3214.6090,N,11052.6286,W,32.57,269.70,251013,,,A*4B

$GPGGA,161922.000,3214.6090,N,11052.6395,W,1,07,1.2,755.1,M,-27.6,M,,0000*68

$GPGSA,A,3,17,02,04,24,12,10,28,,,,,,2.2,1.2,1.8*36

$GPRMC,161922.000,A,3214.6090,N,11052.6395,W,33.19,269.98,251013,,,A*46

$GPGGA,161923.000,3214.6090,N,11052.6507,W,1,07,1.2,754.5,M,-27.6,M,,0000*61

$GPGSA,A,3,17,02,04,24,12,10,28,,,,,,2.2,1.2,1.8*36

$GPGSV,3,1,09,04,73,076,21,02,58,202,31,24,47,274,30,17,33,051,26*7C

$GPGSV,3,2,09,12,29,317,32,10,20,132,27,28,17,116,21,20,03,043,*74

$GPGSV,3,3,09,05,,177,*44

$GPRMC,161923.000,A,3214.6090,N,11052.6507,W,33.43,269.73,251013,,,A*40

$GPGGA,161924.000,3214.6090,N,11052.6617,W,1,07,1.2,755.0,M,-27.6,M,,0000*60

$GPGSA,A,3,17,02,04,24,12,10,28,,,,,,2.2,1.2,1.8*36

$GPRMC,161924.000,A,3214.6090,N,11052.6617,W,33.53,269.82,251013,,,A*4A

$GPGGA,161925.000,3214.6089,N,11052.6730,W,1,07,1.2,754.8,M,-27.6,M,,0000*64

$GPGSA,A,3,17,02,04,24,12,10,28,,,,,,2.2,1.2,1.8*36

$GPRMC,161925.000,A,3214.6089,N,11052.6730,W,34.03,269.56,251013,,,A*4C

$GPGGA,161926.000,3214.6089,N,11052.6839,W,1,07,1.2,755.2,M,-27.6,M,,0000*6A

$GPGSA,A,3,17,02,04,24,12,10,28,,,,,,2.2,1.2,1.8*36

$GPRMC,161926.000,A,3214.6089,N,11052.6839,W,33.15,269.69,251013,,,A*45

$GPGGA,161927.000,3214.6089,N,11052.6948,W,1,07,1.2,755.5,M,-27.6,M,,0000*6B

$GPGSA,A,3,17,02,04,24,12,10,28,,,,,,2.2,1.2,1.8*36

$GPRMC,161927.000,A,3214.6089,N,11052.6948,W,32.96,269.50,251013,,,A*43

$GPGGA,161928.000,3214.6088,N,11052.7059,W,1,07,1.2,755.0,M,-27.6,M,,0000*68

$GPGSA,A,3,17,02,04,24,12,10,28,,,,,,2.2,1.2,1.8*36

$GPGSV,3,1,09,04,73,076,21,02,58,202,31,24,47,274,30,17,33,051,25*7F

$GPGSV,3,2,09,12,29,317,33,10,20,132,27,28,17,116,20,20,03,043,*74

$GPGSV,3,3,09,05,,177,*44

$GPRMC,161928.000,A,3214.6088,N,11052.7059,W,33.67,269.45,251013,,,A*4E

$GPGGA,161929.000,3214.6088,N,11052.7173,W,1,07,1.2,755.2,M,-27.6,M,,0000*62

$GPGSA,A,3,17,02,04,24,12,10,28,,,,,,2.2,1.2,1.8*36

$GPRMC,161929.000,A,3214.6088,N,11052.7173,W,35.00,269.76,251013,,,A*41

$GPGGA,161930.000,3214.6088,N,11052.7289,W,1,07,1.2,754.8,M,-27.6,M,,0000*67

$GPGSA,A,3,17,02,04,24,12,10,28,,,,,,2.2,1.2,1.8*36

$GPRMC,161930.000,A,3214.6088,N,11052.7289,W,35.15,269.75,251013,,,A*48

$GPGGA,161931.000,3214.6086,N,11052.7409,W,1,07,1.2,754.6,M,-27.6,M,,0000*68

$GPGSA,A,3,17,02,04,24,12,10,28,,,,,,2.2,1.2,1.8*36

$GPRMC,161931.000,A,3214.6086,N,11052.7409,W,35.79,269.44,251013,,,A*41

$GPGGA,161932.000,3214.6085,N,11052.7528,W,1,07,1.2,754.2,M,-27.6,M,,0000*6E

$GPGSA,A,3,17,02,04,24,12,10,28,,,,,,2.2,1.2,1.8*36

$GPRMC,161932.000,A,3214.6085,N,11052.7528,W,36.49,269.55,251013,,,A*43

$GPGGA,161933.000,3214.6085,N,11052.7650,W,1,07,1.2,753.1,M,-27.6,M,,0000*67

$GPGSA,A,3,17,02,04,24,12,10,28,,,,,,2.2,1.2,1.8*36

$GPGSV,3,1,09,04,73,076,21,02,58,202,31,24,47,274,31,17,33,051,25*7E

$GPGSV,3,2,09,12,29,317,33,10,20,132,27,28,17,116,20,20,03,043,*74

$GPGSV,3,3,09,05,,177,*44

$GPRMC,161933.000,A,3214.6085,N,11052.7650,W,36.62,269.61,251013,,,A*40

$GPGGA,161934.000,3214.6085,N,11052.7770,W,1,07,1.2,752.6,M,-27.6,M,,0000*65

$GPGSA,A,3,17,02,04,24,12,10,28,,,,,,2.2,1.2,1.8*36

$GPRMC,161934.000,A,3214.6085,N,11052.7770,W,36.56,269.82,251013,,,A*4E

$GPGGA,161935.000,3214.6086,N,11052.7890,W,1,07,1.2,752.1,M,-27.6,M,,0000*61

$GPGSA,A,3,17,02,04,24,12,10,28,,,,,,2.2,1.2,1.8*36

$GPRMC,161935.000,A,3214.6086,N,11052.7890,W,36.50,269.67,251013,,,A*40

$GPGGA,161936.000,3214.6086,N,11052.8010,W,1,07,1.2,751.5,M,-27.6,M,,0000*6A

$GPGSA,A,3,17,02,04,24,12,10,28,,,,,,2.2,1.2,1.8*36

$GPRMC,161936.000,A,3214.6086,N,11052.8010,W,36.84,269.74,251013,,,A*47

$GPGGA,161937.000,3214.6086,N,11052.8130,W,1,07,1.2,750.8,M,-27.6,M,,0000*64

$GPGSA,A,3,17,02,04,24,12,10,28,,,,,,2.2,1.2,1.8*36

$GPRMC,161937.000,A,3214.6086,N,11052.8130,W,36.59,269.44,251013,,,A*46

$GPGGA,161938.000,3214.6085,N,11052.8251,W,1,07,1.2,749.9,M,-27.6,M,,0000*65

$GPGSA,A,3,17,02,04,24,12,10,28,,,,,,2.2,1.2,1.8*36

$GPGSV,3,1,09,04,73,076,21,02,58,202,31,24,47,274,31,17,33,051,25*7E

$GPGSV,3,2,09,12,29,317,33,10,20,132,27,28,17,116,19,20,03,043,*7E

$GPGSV,3,3,09,05,,177,*44

$GPRMC,161938.000,A,3214.6085,N,11052.8251,W,36.46,269.36,251013,,,A*45

$GPGGA,161939.000,3214.6084,N,11052.8372,W,1,07,1.2,748.9,M,-27.6,M,,0000*64

$GPGSA,A,3,17,02,04,24,12,10,28,,,,,,2.2,1.2,1.8*36

$GPRMC,161939.000,A,3214.6084,N,11052.8372,W,36.70,269.42,251013,,,A*43

$GPGGA,161940.000,3214.6083,N,11052.8491,W,1,07,1.2,748.4,M,-27.6,M,,0000*6A

$GPGSA,A,3,17,02,04,24,12,10,28,,,,,,2.2,1.2,1.8*36

$GPRMC,161940.000,A,3214.6083,N,11052.8491,W,36.25,269.57,251013,,,A*44

$GPGGA,161941.000,3214.6083,N,11052.8609,W,1,07,1.2,748.1,M,-27.6,M,,0000*6D

$GPGSA,A,3,17,02,04,24,12,10,28,,,,,,2.2,1.2,1.8*36

$GPRMC,161941.000,A,3214.6083,N,11052.8609,W,35.97,269.82,251013,,,A*44

$GPGGA,161942.000,3214.6083,N,11052.8728,W,1,07,1.2,747.9,M,-27.6,M,,0000*6B

$GPGSA,A,3,17,02,04,24,12,10,28,,,,,,2.2,1.2,1.8*36

$GPRMC,161942.000,A,3214.6083,N,11052.8728,W,36.29,269.72,251013,,,A*4C

$GPGGA,161943.000,3214.6083,N,11052.8846,W,1,07,1.2,747.8,M,-27.6,M,,0000*6C

$GPGSA,A,3,17,02,04,24,12,10,28,,,,,,2.2,1.2,1.8*36

$GPGSV,3,1,09,04,73,076,20,02,58,202,31,24,47,274,31,17,33,051,25*7F

$GPGSV,3,2,09,12,29,317,33,10,20,132,27,28,17,116,21,20,03,043,*75

$GPGSV,3,3,09,05,,177,*44

$GPRMC,161943.000,A,3214.6083,N,11052.8846,W,36.26,269.48,251013,,,A*4C

$GPGGA,161944.000,3214.6083,N,11052.8965,W,1,07,1.2,747.5,M,-27.6,M,,0000*66

$GPGSA,A,3,17,02,04,24,12,10,28,,,,,,2.2,1.2,1.8*36

$GPRMC,161944.000,A,3214.6083,N,11052.8965,W,35.87,269.25,251013,,,A*48

$GPGGA,161945.000,3214.6082,N,11052.9081,W,1,07,1.2,747.5,M,-27.6,M,,0000*64

$GPGSA,A,3,17,02,04,24,12,10,28,,,,,,2.2,1.2,1.8*36

$GPRMC,161945.000,A,3214.6082,N,11052.9081,W,35.42,269.50,251013,,,A*41

$GPGGA,161946.000,3214.6082,N,11052.9195,W,1,07,1.2,747.7,M,-27.6,M,,0000*61

$GPGSA,A,3,17,02,04,24,12,10,28,,,,,,2.2,1.2,1.8*36

$GPRMC,161946.000,A,3214.6082,N,11052.9195,W,34.56,269.38,251013,,,A*4C

$GPGGA,161947.000,3214.6082,N,11052.9306,W,1,07,1.2,748.1,M,-27.6,M,,0000*61

$GPGSA,A,3,17,02,04,24,12,10,28,,,,,,2.2,1.2,1.8*36

$GPRMC,161947.000,A,3214.6082,N,11052.9306,W,33.54,269.79,251013,,,A*45

$GPGGA,161948.000,3214.6083,N,11052.9412,W,1,07,1.2,749.0,M,-27.6,M,,0000*6D

$GPGSA,A,3,17,02,04,24,12,10,28,,,,,,2.2,1.2,1.8*36

$GPGSV,3,1,09,04,73,076,20,02,58,202,31,24,47,274,32,17,33,051,25*7C

$GPGSV,3,2,09,12,29,317,33,10,20,132,26,28,17,116,22,20,03,043,*77

$GPGSV,3,3,09,05,,177,*44

$GPRMC,161948.000,A,3214.6083,N,11052.9412,W,32.56,269.92,251013,,,A*4F

$GPGGA,161949.000,3214.6083,N,11052.9517,W,1,07,1.2,748.9,M,-27.6,M,,0000*60

$GPGSA,A,3,17,02,04,24,12,10,28,,,,,,2.2,1.2,1.8*36

$GPRMC,161949.000,A,3214.6083,N,11052.9517,W,31.83,269.67,251013,,,A*4B

$GPGGA,161950.000,3214.6083,N,11052.9620,W,1,07,1.2,749.1,M,-27.6,M,,0000*66

$GPGSA,A,3,17,02,04,24,12,10,28,,,,,,2.2,1.2,1.8*36

$GPRMC,161950.000,A,3214.6083,N,11052.9620,W,31.17,269.50,251013,,,A*4D

$GPGGA,161951.000,3214.6083,N,11052.9721,W,1,07,1.2,748.9,M,-27.6,M,,0000*6E

$GPGSA,A,3,17,02,04,24,12,10,28,,,,,,2.2,1.2,1.8*36

$GPRMC,161951.000,A,3214.6083,N,11052.9721,W,30.51,269.90,251013,,,A*43

$GPGGA,161952.000,3214.6082,N,11052.9820,W,1,07,1.2,748.8,M,-27.6,M,,0000*63

$GPGSA,A,3,17,02,04,24,12,10,28,,,,,,2.2,1.2,1.8*36

$GPRMC,161952.000,A,3214.6082,N,11052.9820,W,29.94,269.59,251013,,,A*4B

$GPGGA,161953.000,3214.6081,N,11052.9916,W,1,07,1.2,748.8,M,-27.6,M,,0000*65

$GPGSA,A,3,17,02,04,24,12,10,28,,,,,,2.2,1.2,1.8*36

$GPGSV,3,1,09,04,73,076,21,02,58,202,32,24,47,274,33,17,33,051,26*7C

$GPGSV,3,2,09,12,29,317,32,10,20,132,26,28,17,116,23,20,03,043,*77

$GPGSV,3,3,09,05,,177,*44

$GPRMC,161953.000,A,3214.6081,N,11052.9916,W,29.50,269.66,251013,,,A*49

$GPGGA,161954.000,3214.6081,N,11053.0012,W,1,07,1.2,749.4,M,-27.6,M,,0000*6A

$GPGSA,A,3,17,02,04,24,12,10,28,,,,,,2.2,1.2,1.8*36

$GPRMC,161954.000,A,3214.6081,N,11053.0012,W,29.86,269.66,251013,,,A*40

$GPGGA,161955.000,3214.6079,N,11053.0112,W,1,07,1.2,750.2,M,-27.6,M,,0000*63

$GPGSA,A,3,17,02,04,24,12,10,28,,,,,,2.2,1.2,1.8*36

$GPRMC,161955.000,A,3214.6079,N,11053.0112,W,30.84,268.94,251013,,,A*41

$GPGGA,161956.000,3214.6077,N,11053.0218,W,1,07,1.2,750.4,M,-27.6,M,,0000*61

$GPGSA,A,3,17,02,04,24,12,10,28,,,,,,2.2,1.2,1.8*36

$GPRMC,161956.000,A,3214.6077,N,11053.0218,W,32.46,268.87,251013,,,A*4B

$GPGGA,161957.000,3214.6075,N,11053.0323,W,1,07,1.2,750.8,M,-27.6,M,,0000*67

$GPGSA,A,3,17,02,04,24,12,10,28,,,,,,2.2,1.2,1.8*36

$GPRMC,161957.000,A,3214.6075,N,11053.0323,W,31.81,269.38,251013,,,A*4C

$GPGGA,161958.000,3214.6074,N,11053.0427,W,1,07,1.2,751.0,M,-27.6,M,,0000*63

$GPGSA,A,3,17,02,04,24,12,10,28,,,,,,2.2,1.2,1.8*36

$GPGSV,3,1,09,04,73,076,21,02,58,202,31,24,47,274,33,17,33,051,21*78

$GPGSV,3,2,09,12,29,317,32,10,20,132,26,28,17,116,23,20,03,043,*77

$GPGSV,3,3,09,05,,177,*44

$GPRMC,161958.000,A,3214.6074,N,11053.0427,W,31.64,269.68,251013,,,A*4F

$GPGGA,161959.000,3214.6074,N,11053.0530,W,1,07,1.2,752.3,M,-27.6,M,,0000*65

$GPGSA,A,3,17,02,04,24,12,10,28,,,,,,2.2,1.2,1.8*36

$GPRMC,161959.000,A,3214.6074,N,11053.0530,W,31.66,269.55,251013,,,A*45

$GPGGA,162000.000,3214.6075,N,11053.0633,W,1,07,1.2,753.7,M,-27.6,M,,0000*67

$GPGSA,A,3,17,02,04,24,12,10,28,,,,,,2.2,1.2,1.8*36

$GPRMC,162000.000,A,3214.6075,N,11053.0633,W,31.92,270.80,251013,,,A*49

$GPGGA,162001.000,3214.6076,N,11053.0740,W,1,07,1.2,754.1,M,-27.6,M,,0000*61

$GPGSA,A,3,17,02,04,24,12,10,28,,,,,,2.2,1.2,1.8*36

$GPRMC,162001.000,A,3214.6076,N,11053.0740,W,32.97,270.29,251013,,,A*4B

$GPGGA,162002.000,3214.6076,N,11053.0849,W,1,07,1.2,754.2,M,-27.6,M,,0000*67

$GPGSA,A,3,17,02,04,24,12,10,28,,,,,,2.2,1.2,1.8*36

$GPRMC,162002.000,A,3214.6076,N,11053.0849,W,33.35,270.19,251013,,,A*44

$GPGGA,162003.000,3214.6076,N,11053.0961,W,1,06,1.2,754.2,M,-27.6,M,,0000*6C

$GPGSA,A,3,17,02,04,24,12,10,,,,,,,2.4,1.2,2.0*31

$GPGSV,3,1,09,04,73,076,20,02,58,202,31,24,47,274,33,17,33,051,23*7B

$GPGSV,3,2,09,12,29,317,33,10,20,132,26,28,17,116,,20,03,043,*77

$GPGSV,3,3,09,05,,177,*44

$GPRMC,162003.000,A,3214.6076,N,11053.0961,W,33.67,270.76,251013,,,A*40

$GPGGA,162004.000,3214.6077,N,11053.1073,W,1,07,1.2,754.8,M,-27.6,M,,0000*6A

$GPGSA,A,3,17,02,04,24,12,10,28,,,,,,2.2,1.2,1.8*36

$GPRMC,162004.000,A,3214.6077,N,11053.1073,W,34.47,270.24,251013,,,A*4F

$GPGGA,162005.000,3214.6078,N,11053.1185,W,1,07,1.2,755.1,M,-27.6,M,,0000*64

$GPGSA,A,3,17,02,04,24,12,10,28,,,,,,2.2,1.2,1.8*36

$GPRMC,162005.000,A,3214.6078,N,11053.1185,W,34.41,269.83,251013,,,A*4A

$GPGGA,162006.000,3214.6077,N,11053.1297,W,1,07,1.2,754.9,M,-27.6,M,,0000*61

$GPGSA,A,3,17,02,04,24,12,10,28,,,,,,2.2,1.2,1.8*36

$GPRMC,162006.000,A,3214.6077,N,11053.1297,W,33.89,269.59,251013,,,A*42

$GPGGA,162007.000,3214.6078,N,11053.1405,W,1,07,1.2,755.2,M,-27.6,M,,0000*68

$GPGSA,A,3,17,02,04,24,12,10,28,,,,,,2.2,1.2,1.8*36

$GPRMC,162007.000,A,3214.6078,N,11053.1405,W,33.47,270.38,251013,,,A*4C

$GPGGA,162008.000,3214.6079,N,11053.1515,W,1,07,1.2,755.2,M,-27.6,M,,0000*66

$GPGSA,A,3,17,02,04,24,12,10,28,,,,,,2.2,1.2,1.8*36

$GPGSV,3,1,09,04,73,076,20,02,58,202,31,24,47,274,33,17,33,051,24*7C

$GPGSV,3,2,09,12,29,317,33,10,20,132,26,28,17,116,22,20,03,043,*77

$GPGSV,3,3,09,05,,177,*44

$GPRMC,162008.000,A,3214.6079,N,11053.1515,W,33.53,270.05,251013,,,A*49

$GPGGA,162009.000,3214.6080,N,11053.1624,W,1,07,1.2,755.0,M,-27.6,M,,0000*62

$GPGSA,A,3,17,02,04,24,12,10,28,,,,,,2.2,1.2,1.8*36

$GPRMC,162009.000,A,3214.6080,N,11053.1624,W,33.54,269.76,251013,,,A*44

$GPGGA,162010.000,3214.6079,N,11053.1735,W,1,07,1.2,754.6,M,-27.6,M,,0000*6A

$GPGSA,A,3,17,02,04,24,12,10,28,,,,,,2.2,1.2,1.8*36

$GPRMC,162010.000,A,3214.6079,N,11053.1735,W,33.89,269.38,251013,,,A*41

$GPGGA,162011.000,3214.6078,N,11053.1847,W,1,07,1.2,754.2,M,-27.6,M,,0000*64

$GPGSA,A,3,17,02,04,24,12,10,28,,,,,,2.2,1.2,1.8*36

$GPRMC,162011.000,A,3214.6078,N,11053.1847,W,33.83,269.16,251013,,,A*4D

$GPGGA,162012.000,3214.6075,N,11053.1959,W,1,07,1.2,753.0,M,-27.6,M,,0000*61

$GPGSA,A,3,17,02,04,24,12,10,28,,,,,,2.2,1.2,1.8*36

$GPRMC,162012.000,A,3214.6075,N,11053.1959,W,33.50,269.18,251013,,,A*4D

$GPGGA,162013.000,3214.6074,N,11053.2070,W,1,07,1.2,752.7,M,-27.6,M,,0000*66

$GPGSA,A,3,17,02,04,24,12,10,28,,,,,,2.2,1.2,1.8*36

$GPGSV,3,1,09,04,73,076,14,02,58,202,31,24,47,274,33,17,33,051,24*7B

$GPGSV,3,2,09,12,29,317,33,10,20,132,26,28,17,116,22,20,03,043,*77

$GPGSV,3,3,09,05,,177,*44

$GPRMC,162013.000,A,3214.6074,N,11053.2070,W,34.11,269.50,251013,,,A*42

$GPGGA,162014.000,3214.6074,N,11053.2180,W,1,07,1.2,753.0,M,-27.6,M,,0000*69

$GPGSA,A,3,17,02,04,24,12,10,28,,,,,,2.2,1.2,1.8*36

$GPRMC,162014.000,A,3214.6074,N,11053.2180,W,33.76,269.55,251013,,,A*48

$GPGGA,162015.000,3214.6075,N,11053.2289,W,1,07,1.2,753.0,M,-27.6,M,,0000*63

$GPGSA,A,3,17,02,04,24,12,10,28,,,,,,2.2,1.2,1.8*36

