$GPGGA,224344,3214.0925,N,11057.3581,W,1,04,1.0,734,M,000.0,M,,*7B
$GPRMC,224344,A,3214.0925,N,11057.3581,W,000.0,000.0,301013,,,A*62
$GPGGA,224345,3214.06362,N,11057.3496,W,1,04,1.0,734,M,000.0,M,,*42
$GPRMC,224345,A,3214.06362,N,11057.3496,W,000.0,000.0,301013,,,A*5B
$GPGGA,224346,3214.06608,N,11057.36228,W,1,04,1.0,729,M,000.0,M,,*71
$GPRMC,224346,A,3214.06608,N,11057.36228,W,000.0,000.0,301013,,,A*64
$GPGGA,224347,3214.06595,N,11057.36169,W,1,04,1.0,739,M,000.0,M,,*70
$GPRMC,224347,A,3214.06595,N,11057.36169,W,000.0,000.0,301013,,,A*64
$GPGGA,224348,3214.06949,N,11057.35576,W,1,04,1.0,735,M,000.0,M,,*77
$GPRMC,224348,A,3214.06949,N,11057.35576,W,000.0,000.0,301013,,,A*6F
$GPGGA,224350,3214.06789,N,11057.36374,W,1,04,1.0,741,M,000.0,M,,*78
$GPRMC,224350,A,3214.06789,N,11057.36374,W,000.0,000.0,301013,,,A*63
$GPGGA,224351,3214.06757,N,11057.35644,W,1,04,1.0,739,M,000.0,M,,*70
$GPRMC,224351,A,3214.06757,N,11057.35644,W,000.0,000.0,301013,,,A*64
$GPGGA,224352,3214.06749,N,11057.35582,W,1,04,1.0,738,M,000.0,M,,*74
$GPRMC,224352,A,3214.06749,N,11057.35582,W,000.0,000.0,301013,,,A*61
$GPGGA,224353,3214.06485,N,11057.35202,W,1,04,1.0,739.454895,M,000.0,M,,*57
$GPRMC,224353,A,3214.06485,N,11057.35202,W,000.0,000.0,301013,,,A*6C
$GPGGA,224355,3214.0548,N,11057.34125,W,1,04,1.0,861,M,000.0,M,,*4D
$GPRMC,224355,A,3214.0548,N,11057.34125,W,000.0,000.0,301013,,,A*5B
$GPGGA,224356,3214.0529,N,11057.33901,W,1,04,1.0,888,M,000.0,M,,*47
$GPRMC,224356,A,3214.0529,N,11057.33901,W,000.0,000.0,301013,,,A*56
$GPGGA,224357,3214.05187,N,11057.33733,W,1,04,1.0,887,M,000.0,M,,*73
$GPRMC,224357,A,3214.05187,N,11057.33733,W,000.0,000.0,301013,,,A*6D
$GPGGA,224358,3214.05518,N,11057.34002,W,1,04,1.0,785,M,000.0,M,,*71
$GPRMC,224358,A,3214.05518,N,11057.34002,W,000.0,000.0,301013,,,A*62
$GPGGA,224359,3214.05662,N,11057.34094,W,1,04,1.0,778,M,000.0,M,,*73
$GPRMC,224359,A,3214.05662,N,11057.34094,W,000.0,000.0,301013,,,A*62
$GPGGA,224401,3214.05827,N,11057.34201,W,1,04,1.0,759,M,000.0,M,,*7B
$GPRMC,224401,A,3214.05827,N,11057.34201,W,000.0,000.0,301013,,,A*69
$GPGGA,224402,3214.0596,N,11057.3433,W,1,04,1.0,742,M,000.0,M,,*73
$GPRMC,224402,A,3214.0596,N,11057.3433,W,000.0,000.0,301013,,,A*6B
$GPGGA,224403,3214.06092,N,11057.34474,W,1,04,1.0,740,M,000.0,M,,*70
$GPRMC,224403,A,3214.06092,N,11057.34474,W,000.0,000.0,301013,,,A*6A
$GPGGA,224405,3214.061,N,11057.3448,W,1,04,1.0,740,M,000.0,M,,*47
$GPRMC,224405,A,3214.061,N,11057.3448,W,000.0,000.0,301013,,,A*5D
$GPGGA,224406,3214.06143,N,11057.34325,W,1,04,1.0,737,M,000.0,M,,*7B
$GPRMC,224406,A,3214.06143,N,11057.34325,W,000.0,000.0,301013,,,A*61
$GPGGA,224408,3214.06186,N,11057.34205,W,1,04,1.0,739,M,000.0,M,,*71
$GPRMC,224408,A,3214.06186,N,11057.34205,W,000.0,000.0,301013,,,A*65
$GPGGA,224409,3214.06247,N,11057.33961,W,1,04,1.0,738,M,000.0,M,,*71
$GPRMC,224409,A,3214.06247,N,11057.33961,W,000.0,000.0,301013,,,A*64
$GPGGA,224411,3214.06273,N,11057.3383,W,1,04,1.0,737,M,000.0,M,,*45
$GPRMC,224411,A,3214.06273,N,11057.3383,W,000.0,000.0,301013,,,A*5F
$GPGGA,224412,3214.06303,N,11057.33705,W,1,04,1.0,737,M,000.0,M,,*79
$GPRMC,224412,A,3214.06303,N,11057.33705,W,000.0,000.0,301013,,,A*63
$GPGGA,224414,3214.0633,N,11057.33411,W,1,04,1.0,735,M,000.0,M,,*4B
$GPRMC,224414,A,3214.0633,N,11057.33411,W,000.0,000.0,301013,,,A*53
$GPGGA,224415,3214.06302,N,11057.33285,W,1,04,1.0,734,M,000.0,M,,*71
$GPRMC,224415,A,3214.06302,N,11057.33285,W,000.0,000.0,301013,,,A*68
$GPGGA,224417,3214.06243,N,11057.33146,W,1,04,1.0,736,M,000.0,M,,*79
$GPRMC,224417,A,3214.06243,N,11057.33146,W,000.0,000.0,301013,,,A*62
$GPGGA,224418,3214.06229,N,11057.33101,W,1,04,1.0,739,M,000.0,M,,*76
$GPRMC,224418,A,3214.06229,N,11057.33101,W,000.0,000.0,301013,,,A*62
$GPGGA,224419,3214.06211,N,11057.32982,W,1,04,1.0,741,M,000.0,M,,*71
$GPRMC,224419,A,3214.06211,N,11057.32982,W,000.0,000.0,301013,,,A*6A
$GPGGA,224421,3214.06195,N,11057.32897,W,1,04,1.0,741,M,000.0,M,,*70
$GPRMC,224421,A,3214.06195,N,11057.32897,W,000.0,000.0,301013,,,A*6B
$GPGGA,224423,3214.06164,N,11057.32732,W,1,04,1.0,741,M,000.0,M,,*7C
$GPRMC,224423,A,3214.06164,N,11057.32732,W,000.0,000.0,301013,,,A*67
$GPGGA,224424,3214.06163,N,11057.32642,W,1,04,1.0,741,M,000.0,M,,*7A
$GPRMC,224424,A,3214.06163,N,11057.32642,W,000.0,000.0,301013,,,A*61
$GPGGA,224426,3214.06257,N,11057.32446,W,1,04,1.0,743,M,000.0,M,,*78
$GPRMC,224426,A,3214.06257,N,11057.32446,W,000.0,000.0,301013,,,A*61
$GPGGA,224427,3214.06366,N,11057.32228,W,1,04,1.0,744,M,000.0,M,,*73
$GPRMC,224427,A,3214.06366,N,11057.32228,W,000.0,000.0,301013,,,A*6D
$GPGGA,224428,3214.06527,N,11057.31842,W,1,04,1.0,745,M,000.0,M,,*7B
$GPRMC,224428,A,3214.06527,N,11057.31842,W,000.0,000.0,301013,,,A*64
$GPGGA,224430,3214.0659,N,11057.31686,W,1,04,1.0,745,M,000.0,M,,*48
$GPRMC,224430,A,3214.0659,N,11057.31686,W,000.0,000.0,301013,,,A*57
$GPGGA,224431,3214.06648,N,11057.31453,W,1,04,1.0,745,M,000.0,M,,*75
$GPRMC,224431,A,3214.06648,N,11057.31453,W,000.0,000.0,301013,,,A*6A
$GPGGA,224433,3214.06657,N,11057.31344,W,1,04,1.0,745,M,000.0,M,,*78
$GPRMC,224433,A,3214.06657,N,11057.31344,W,000.0,000.0,301013,,,A*67
$GPGGA,224434,3214.06657,N,11057.3111,W,1,04,1.0,744,M,000.0,M,,*4D
$GPRMC,224434,A,3214.06657,N,11057.3111,W,000.0,000.0,301013,,,A*53
$GPGGA,224436,3214.0667,N,11057.3101,W,1,04,1.0,743,M,000.0,M,,*7C
$GPRMC,224436,A,3214.0667,N,11057.3101,W,000.0,000.0,301013,,,A*65
$GPGGA,224437,3214.06721,N,11057.30822,W,1,04,1.0,742,M,000.0,M,,*71
$GPRMC,224437,A,3214.06721,N,11057.30822,W,000.0,000.0,301013,,,A*69
$GPGGA,224439,3214.06748,N,11057.30727,W,1,04,1.0,740,M,000.0,M,,*78
$GPRMC,224439,A,3214.06748,N,11057.30727,W,000.0,000.0,301013,,,A*62
$GPGGA,224440,3214.06776,N,11057.30636,W,1,04,1.0,739,M,000.0,M,,*74
$GPRMC,224440,A,3214.06776,N,11057.30636,W,000.0,000.0,301013,,,A*60
$GPGGA,224442,3214.06821,N,11057.30454,W,1,04,1.0,738,M,000.0,M,,*7C
$GPRMC,224442,A,3214.06821,N,11057.30454,W,000.0,000.0,301013,,,A*69
$GPGGA,224443,3214.06827,N,11057.30348,W,1,04,1.0,740,M,000.0,M,,*7E
$GPRMC,224443,A,3214.06827,N,11057.30348,W,000.0,000.0,301013,,,A*64
$GPGGA,224445,3214.06855,N,11057.3021,W,1,04,1.0,739,M,000.0,M,,*4F
$GPRMC,224445,A,3214.06855,N,11057.3021,W,000.0,000.0,301013,,,A*5B
$GPGGA,224446,3214.06872,N,11057.30166,W,1,04,1.0,738,M,000.0,M,,*7A
$GPRMC,224446,A,3214.06872,N,11057.30166,W,000.0,000.0,301013,,,A*6F
$GPGGA,224448,3214.0689,N,11057.30112,W,1,04,1.0,736,M,000.0,M,,*45
$GPRMC,224448,A,3214.0689,N,11057.30112,W,000.0,000.0,301013,,,A*5E
$GPGGA,224449,3214.06891,N,11057.30051,W,1,04,1.0,735,M,000.0,M,,*70
$GPRMC,224449,A,3214.06891,N,11057.30051,W,000.0,000.0,301013,,,A*68
$GPGGA,224450,3214.06882,N,11057.29948,W,1,04,1.0,740,M,000.0,M,,*71
$GPRMC,224450,A,3214.06882,N,11057.29948,W,000.0,000.0,301013,,,A*6B
$GPGGA,224452,3214.06886,N,11057.2993,W,1,04,1.0,741,M,000.0,M,,*49
$GPRMC,224452,A,3214.06886,N,11057.2993,W,000.0,000.0,301013,,,A*52
$GPGGA,224453,3214.06906,N,11057.29906,W,1,04,1.0,742,M,000.0,M,,*77
$GPRMC,224453,A,3214.06906,N,11057.29906,W,000.0,000.0,301013,,,A*6F
$GPGGA,224455,3214.06992,N,11057.29955,W,1,04,1.0,741,M,000.0,M,,*79
$GPRMC,224455,A,3214.06992,N,11057.29955,W,000.0,000.0,301013,,,A*62
$GPGGA,224456,3214.07177,N,11057.29997,W,1,04,1.0,739,M,000.0,M,,*79
$GPRMC,224456,A,3214.07177,N,11057.29997,W,000.0,000.0,301013,,,A*6D
$GPGGA,224458,3214.07272,N,11057.3,W,1,04,1.0,738,M,000.0,M,,*7F
$GPRMC,224458,A,3214.07272,N,11057.3,W,000.0,000.0,301013,,,A*6A
$GPGGA,224459,3214.07403,N,11057.2997,W,1,04,1.0,739,M,000.0,M,,*49
$GPRMC,224459,A,3214.07403,N,11057.2997,W,000.0,000.0,301013,,,A*5D
$GPGGA,224501,3214.07445,N,11057.29965,W,1,04,1.0,739,M,000.0,M,,*73
$GPRMC,224501,A,3214.07445,N,11057.29965,W,000.0,000.0,301013,,,A*67
$GPGGA,224502,3214.07519,N,11057.29959,W,1,04,1.0,740,M,000.0,M,,*79
$GPRMC,224502,A,3214.07519,N,11057.29959,W,000.0,000.0,301013,,,A*63
$GPGGA,224504,3214.07575,N,11057.29962,W,1,04,1.0,740,M,000.0,M,,*7D
$GPRMC,224504,A,3214.07575,N,11057.29962,W,000.0,000.0,301013,,,A*67
$GPGGA,224505,3214.07728,N,11057.2995,W,1,04,1.0,740,M,000.0,M,,*47
$GPRMC,224505,A,3214.07728,N,11057.2995,W,000.0,000.0,301013,,,A*5D
$GPGGA,224507,3214.07823,N,11057.29932,W,1,04,1.0,741,M,000.0,M,,*74
$GPRMC,224507,A,3214.07823,N,11057.29932,W,000.0,000.0,301013,,,A*6F
$GPGGA,224508,3214.0793,N,11057.29922,W,1,04,1.0,741,M,000.0,M,,*49
$GPRMC,224508,A,3214.0793,N,11057.29922,W,000.0,000.0,301013,,,A*52
$GPGGA,224510,3214.08154,N,11057.29912,W,1,04,1.0,741,M,000.0,M,,*76
$GPRMC,224510,A,3214.08154,N,11057.29912,W,000.0,000.0,301013,,,A*6D
$GPGGA,224511,3214.08243,N,11057.29909,W,1,04,1.0,741,M,000.0,M,,*78
$GPRMC,224511,A,3214.08243,N,11057.29909,W,000.0,000.0,301013,,,A*63
$GPGGA,224513,3214.08396,N,11057.29922,W,1,04,1.0,739,M,000.0,M,,*75
$GPRMC,224513,A,3214.08396,N,11057.29922,W,000.0,000.0,301013,,,A*61
$GPGGA,224514,3214.08477,N,11057.29937,W,1,04,1.0,737,M,000.0,M,,*70
$GPRMC,224514,A,3214.08477,N,11057.29937,W,000.0,000.0,301013,,,A*6A
$GPGGA,224515,3214.08634,N,11057.29959,W,1,04,1.0,737,M,000.0,M,,*7C
$GPRMC,224515,A,3214.08634,N,11057.29959,W,000.0,000.0,301013,,,A*66
$GPGGA,224517,3214.08727,N,11057.29958,W,1,04,1.0,737,M,000.0,M,,*7C
$GPRMC,224517,A,3214.08727,N,11057.29958,W,000.0,000.0,301013,,,A*66
$GPGGA,224518,3214.08971,N,11057.29923,W,1,04,1.0,737,M,000.0,M,,*72
$GPRMC,224518,A,3214.08971,N,11057.29923,W,000.0,000.0,301013,,,A*68
$GPGGA,224520,3214.09015,N,11057.29884,W,1,04,1.0,738,M,000.0,M,,*70
$GPRMC,224520,A,3214.09015,N,11057.29884,W,000.0,000.0,301013,,,A*65
$GPGGA,224521,3214.09003,N,11057.29783,W,1,04,1.0,738,M,000.0,M,,*7E
$GPRMC,224521,A,3214.09003,N,11057.29783,W,000.0,000.0,301013,,,A*6B
$GPGGA,224523,3214.0898,N,11057.29698,W,1,04,1.0,739,M,000.0,M,,*45
$GPRMC,224523,A,3214.0898,N,11057.29698,W,000.0,000.0,301013,,,A*51
$GPGGA,224524,3214.08974,N,11057.29653,W,1,04,1.0,739,M,000.0,M,,*7E
$GPRMC,224524,A,3214.08974,N,11057.29653,W,000.0,000.0,301013,,,A*6A
$GPGGA,224526,3214.08979,N,11057.29413,W,1,04,1.0,740,M,000.0,M,,*79
$GPRMC,224526,A,3214.08979,N,11057.29413,W,000.0,000.0,301013,,,A*63
$GPGGA,224527,3214.08994,N,11057.29334,W,1,04,1.0,740,M,000.0,M,,*79
$GPRMC,224527,A,3214.08994,N,11057.29334,W,000.0,000.0,301013,,,A*63
$GPGGA,224529,3214.08989,N,11057.29128,W,1,04,1.0,741,M,000.0,M,,*75
$GPRMC,224529,A,3214.08989,N,11057.29128,W,000.0,000.0,301013,,,A*6E
$GPGGA,224530,3214.09,N,11057.29022,W,1,04,1.0,741,M,000.0,M,,*4F
$GPRMC,224530,A,3214.09,N,11057.29022,W,000.0,000.0,301013,,,A*54
$GPGGA,224531,3214.09069,N,11057.28802,W,1,04,1.0,741,M,000.0,M,,*7A
$GPRMC,224531,A,3214.09069,N,11057.28802,W,000.0,000.0,301013,,,A*61
$GPGGA,224533,3214.0911,N,11057.28699,W,1,04,1.0,741,M,000.0,M,,*4B
$GPRMC,224533,A,3214.0911,N,11057.28699,W,000.0,000.0,301013,,,A*50
$GPGGA,224534,3214.09164,N,11057.28473,W,1,04,1.0,739,M,000.0,M,,*76
$GPRMC,224534,A,3214.09164,N,11057.28473,W,000.0,000.0,301013,,,A*62
$GPGGA,224536,3214.09217,N,11057.28391,W,1,04,1.0,739,M,000.0,M,,*78
$GPRMC,224536,A,3214.09217,N,11057.28391,W,000.0,000.0,301013,,,A*6C
$GPGGA,224537,3214.09192,N,11057.27906,W,1,04,1.0,739,M,000.0,M,,*7C
$GPRMC,224537,A,3214.09192,N,11057.27906,W,000.0,000.0,301013,,,A*68
$GPGGA,224539,3214.09235,N,11057.27771,W,1,04,1.0,739,M,000.0,M,,*72
$GPRMC,224539,A,3214.09235,N,11057.27771,W,000.0,000.0,301013,,,A*66
$GPGGA,224540,3214.09227,N,11057.27216,W,1,04,1.0,740,M,000.0,M,,*75
$GPRMC,224540,A,3214.09227,N,11057.27216,W,000.0,000.0,301013,,,A*6F
$GPGGA,224542,3214.09284,N,11057.27016,W,1,04,1.0,740,M,000.0,M,,*7C
$GPRMC,224542,A,3214.09284,N,11057.27016,W,000.0,000.0,301013,,,A*66
$GPGGA,224543,3214.09352,N,11057.26871,W,1,04,1.0,739,M,000.0,M,,*71
$GPRMC,224543,A,3214.09352,N,11057.26871,W,000.0,000.0,301013,,,A*65
$GPGGA,224545,3214.09456,N,11057.26694,W,1,04,1.0,740,M,000.0,M,,*7F
$GPRMC,224545,A,3214.09456,N,11057.26694,W,000.0,000.0,301013,,,A*65
$GPGGA,224546,3214.09468,N,11057.26638,W,1,04,1.0,740,M,000.0,M,,*77
$GPRMC,224546,A,3214.09468,N,11057.26638,W,000.0,000.0,301013,,,A*6D
$GPGGA,224548,3214.09336,N,11057.26535,W,1,04,1.0,740,M,000.0,M,,*7B
$GPRMC,224548,A,3214.09336,N,11057.26535,W,000.0,000.0,301013,,,A*61
$GPGGA,224549,3214.0929,N,11057.26501,W,1,04,1.0,739,M,000.0,M,,*4E
$GPRMC,224549,A,3214.0929,N,11057.26501,W,000.0,000.0,301013,,,A*5A
$GPGGA,224551,3214.09242,N,11057.26462,W,1,04,1.0,738,M,000.0,M,,*7D
$GPRMC,224551,A,3214.09242,N,11057.26462,W,000.0,000.0,301013,,,A*68
$GPGGA,224552,3214.09188,N,11057.26448,W,1,04,1.0,737,M,000.0,M,,*7C
$GPRMC,224552,A,3214.09188,N,11057.26448,W,000.0,000.0,301013,,,A*66
$GPGGA,224553,3214.09139,N,11057.26245,W,1,04,1.0,738,M,000.0,M,,*73
$GPRMC,224553,A,3214.09139,N,11057.26245,W,000.0,000.0,301013,,,A*66
$GPGGA,224555,3214.09122,N,11057.26069,W,1,04,1.0,738,M,000.0,M,,*73
$GPRMC,224555,A,3214.09122,N,11057.26069,W,000.0,000.0,301013,,,A*66
$GPGGA,224556,3214.09081,N,11057.25788,W,1,04,1.0,737,M,000.0,M,,*7C
$GPRMC,224556,A,3214.09081,N,11057.25788,W,000.0,000.0,301013,,,A*66
$GPGGA,224558,3214.0905,N,11057.25705,W,1,04,1.0,737,M,000.0,M,,*4B
$GPRMC,224558,A,3214.0905,N,11057.25705,W,000.0,000.0,301013,,,A*51
$GPGGA,224600,3214.0905,N,11057.2552,W,1,04,1.0,736,M,000.0,M,,*71
$GPRMC,224600,A,3214.0905,N,11057.2552,W,000.0,000.0,301013,,,A*6A
$GPGGA,224601,3214.09114,N,11057.25311,W,1,04,1.0,736,M,000.0,M,,*75
$GPRMC,224601,A,3214.09114,N,11057.25311,W,000.0,000.0,301013,,,A*6E
$GPGGA,224603,3214.09141,N,11057.25203,W,1,04,1.0,736,M,000.0,M,,*75
$GPRMC,224603,A,3214.09141,N,11057.25203,W,000.0,000.0,301013,,,A*6E
$GPGGA,224604,3214.09168,N,11057.24984,W,1,04,1.0,738,M,000.0,M,,*72
$GPRMC,224604,A,3214.09168,N,11057.24984,W,000.0,000.0,301013,,,A*67
$GPGGA,224606,3214.09166,N,11057.24869,W,1,04,1.0,738,M,000.0,M,,*7C
$GPRMC,224606,A,3214.09166,N,11057.24869,W,000.0,000.0,301013,,,A*69
$GPGGA,224607,3214.09171,N,11057.2475,W,1,04,1.0,738,M,000.0,M,,*4E
$GPRMC,224607,A,3214.09171,N,11057.2475,W,000.0,000.0,301013,,,A*5B
$GPGGA,224609,3214.09148,N,11057.24507,W,1,04,1.0,738,M,000.0,M,,*7A
$GPRMC,224609,A,3214.09148,N,11057.24507,W,000.0,000.0,301013,,,A*6F
$GPGGA,224610,3214.09094,N,11057.24344,W,1,04,1.0,735,M,000.0,M,,*7E
$GPRMC,224610,A,3214.09094,N,11057.24344,W,000.0,000.0,301013,,,A*66
$GPGGA,224612,3214.08982,N,11057.24026,W,1,04,1.0,735,M,000.0,M,,*74
$GPRMC,224612,A,3214.08982,N,11057.24026,W,000.0,000.0,301013,,,A*6C
$GPGGA,224614,3214.0897,N,11057.23895,W,1,04,1.0,735,M,000.0,M,,*48
$GPRMC,224614,A,3214.0897,N,11057.23895,W,000.0,000.0,301013,,,A*50
$GPGGA,224616,3214.08981,N,11057.23638,W,1,04,1.0,736,M,000.0,M,,*7E
$GPRMC,224616,A,3214.08981,N,11057.23638,W,000.0,000.0,301013,,,A*65
$GPGGA,224617,3214.09366,N,11057.23326,W,1,04,1.0,732,M,000.0,M,,*73
$GPRMC,224617,A,3214.09366,N,11057.23326,W,000.0,000.0,301013,,,A*6C
$GPGGA,224620,3214.09852,N,11057.22925,W,1,04,1.0,730,M,000.0,M,,*71
$GPRMC,224620,A,3214.09852,N,11057.22925,W,000.0,000.0,301013,,,A*6C
$GPGGA,224622,3214.0946,N,11057.22924,W,1,04,1.0,732,M,000.0,M,,*4D
$GPRMC,224622,A,3214.0946,N,11057.22924,W,000.0,000.0,301013,,,A*52
$GPGGA,224623,3214.09405,N,11057.22814,W,1,04,1.0,732,M,000.0,M,,*7D
$GPRMC,224623,A,3214.09405,N,11057.22814,W,000.0,000.0,301013,,,A*62
$GPGGA,224624,3214.09414,N,11057.22626,W,1,04,1.0,731,M,000.0,M,,*76
$GPRMC,224624,A,3214.09414,N,11057.22626,W,000.0,000.0,301013,,,A*6A
$GPGGA,224626,3214.09272,N,11057.22453,W,1,04,1.0,732,M,000.0,M,,*71
$GPRMC,224626,A,3214.09272,N,11057.22453,W,000.0,000.0,301013,,,A*6E
$GPGGA,224627,3214.09267,N,11057.2221,W,1,04,1.0,734,M,000.0,M,,*43
$GPRMC,224627,A,3214.09267,N,11057.2221,W,000.0,000.0,301013,,,A*5A
$GPGGA,224629,3214.09255,N,11057.22071,W,1,04,1.0,734,M,000.0,M,,*79
$GPRMC,224629,A,3214.09255,N,11057.22071,W,000.0,000.0,301013,,,A*60
$GPGGA,224630,3214.09241,N,11057.21905,W,1,04,1.0,734,M,000.0,M,,*7D
$GPRMC,224630,A,3214.09241,N,11057.21905,W,000.0,000.0,301013,,,A*64
$GPGGA,224632,3214.09294,N,11057.21584,W,1,04,1.0,737,M,000.0,M,,*71
$GPRMC,224632,A,3214.09294,N,11057.21584,W,000.0,000.0,301013,,,A*6B
$GPGGA,224633,3214.09354,N,11057.21259,W,1,04,1.0,736,M,000.0,M,,*7B
$GPRMC,224633,A,3214.09354,N,11057.21259,W,000.0,000.0,301013,,,A*60
$GPGGA,224635,3214.09358,N,11057.21113,W,1,04,1.0,737,M,000.0,M,,*7D
$GPRMC,224635,A,3214.09358,N,11057.21113,W,000.0,000.0,301013,,,A*67
$GPGGA,224636,3214.09347,N,11057.20981,W,1,04,1.0,738,M,000.0,M,,*7D
$GPRMC,224636,A,3214.09347,N,11057.20981,W,000.0,000.0,301013,,,A*68
$GPGGA,224638,3214.09295,N,11057.20771,W,1,04,1.0,737,M,000.0,M,,*73
$GPRMC,224638,A,3214.09295,N,11057.20771,W,000.0,000.0,301013,,,A*69
$GPGGA,224639,3214.09267,N,11057.20693,W,1,04,1.0,738,M,000.0,M,,*7D
$GPRMC,224639,A,3214.09267,N,11057.20693,W,000.0,000.0,301013,,,A*68
$GPGGA,224641,3214.0925,N,11057.20551,W,1,04,1.0,737,M,000.0,M,,*44
$GPRMC,224641,A,3214.0925,N,11057.20551,W,000.0,000.0,301013,,,A*5E
$GPGGA,224642,3214.0925,N,11057.20493,W,1,04,1.0,737,M,000.0,M,,*48
$GPRMC,224642,A,3214.0925,N,11057.20493,W,000.0,000.0,301013,,,A*52
$GPGGA,224643,3214.09261,N,11057.204,W,1,04,1.0,738,M,000.0,M,,*7E
$GPRMC,224643,A,3214.09261,N,11057.204,W,000.0,000.0,301013,,,A*6B
$GPGGA,224645,3214.09277,N,11057.20326,W,1,04,1.0,738,M,000.0,M,,*7C
$GPRMC,224645,A,3214.09277,N,11057.20326,W,000.0,000.0,301013,,,A*69
$GPGGA,224646,3214.0923,N,11057.20316,W,1,04,1.0,737,M,000.0,M,,*40
$GPRMC,224646,A,3214.0923,N,11057.20316,W,000.0,000.0,301013,,,A*5A
$GPGGA,224648,3214.09252,N,11057.20218,W,1,04,1.0,738,M,000.0,M,,*7A
$GPRMC,224648,A,3214.09252,N,11057.20218,W,000.0,000.0,301013,,,A*6F
$GPGGA,224649,3214.09309,N,11057.20099,W,1,04,1.0,738,M,000.0,M,,*7F
$GPRMC,224649,A,3214.09309,N,11057.20099,W,000.0,000.0,301013,,,A*6A
$GPGGA,224651,3214.09328,N,11057.20041,W,1,04,1.0,737,M,000.0,M,,*7F
$GPRMC,224651,A,3214.09328,N,11057.20041,W,000.0,000.0,301013,,,A*65
$GPGGA,224652,3214.0939,N,11057.19967,W,1,04,1.0,737,M,000.0,M,,*48
$GPRMC,224652,A,3214.0939,N,11057.19967,W,000.0,000.0,301013,,,A*52
$GPGGA,224654,3214.0942,N,11057.19952,W,1,04,1.0,738,M,000.0,M,,*4B
$GPRMC,224654,A,3214.0942,N,11057.19952,W,000.0,000.0,301013,,,A*5E
$GPGGA,224655,3214.09454,N,11057.1994,W,1,04,1.0,741,M,000.0,M,,*44
$GPRMC,224655,A,3214.09454,N,11057.1994,W,000.0,000.0,301013,,,A*5F
$GPGGA,224657,3214.0946,N,11057.19958,W,1,04,1.0,740,M,000.0,M,,*49
$GPRMC,224657,A,3214.0946,N,11057.19958,W,000.0,000.0,301013,,,A*53
$GPGGA,224658,3214.09446,N,11057.19997,W,1,04,1.0,739,M,000.0,M,,*7F
$GPRMC,224658,A,3214.09446,N,11057.19997,W,000.0,000.0,301013,,,A*6B
$GPGGA,224700,3214.09446,N,11057.19997,W,1,04,1.0,740,M,000.0,M,,*7D
$GPRMC,224700,A,3214.09446,N,11057.19997,W,000.0,000.0,301013,,,A*67
$GPGGA,224701,3214.09446,N,11057.19997,W,1,04,1.0,740,M,000.0,M,,*7C
$GPRMC,224701,A,3214.09446,N,11057.19997,W,000.0,000.0,301013,,,A*66
$GPGGA,224703,3214.09446,N,11057.19997,W,1,04,1.0,740,M,000.0,M,,*7E
$GPRMC,224703,A,3214.09446,N,11057.19997,W,000.0,000.0,301013,,,A*64
$GPGGA,224704,3214.09446,N,11057.19997,W,1,04,1.0,740,M,000.0,M,,*79
$GPRMC,224704,A,3214.09446,N,11057.19997,W,000.0,000.0,301013,,,A*63
$GPGGA,224706,3214.09446,N,11057.19997,W,1,04,1.0,739,M,000.0,M,,*75
$GPRMC,224706,A,3214.09446,N,11057.19997,W,000.0,000.0,301013,,,A*61
$GPGGA,224707,3214.09402,N,11057.19913,W,1,04,1.0,739,M,000.0,M,,*78
$GPRMC,224707,A,3214.09402,N,11057.19913,W,000.0,000.0,301013,,,A*6C
