$GPGGA,161837,3214.6119,N,11052.51856,W,1,04,1.0,746,M,000.0,M,,*47
$GPRMC,161908,A,3214.6119,N,11052.51856,W,000.0,000.0,251013,,,A*5F
$GPGGA,161908,3214.61197,N,11052.51931,W,1,04,1.0,747,M,000.0,M,,*7C
$GPRMC,161908,A,3214.61197,N,11052.51931,W,000.0,000.0,251013,,,A*65
$GPGGA,161908,3214.6063,N,11052.81341,W,1,04,1.0,748,M,000.0,M,,*4B
$GPRMC,161938,A,3214.6063,N,11052.81341,W,000.0,000.0,251013,,,A*5D
$GPGGA,162008,3214.60688,N,11053.13961,W,1,04,1.0,748,M,000.0,M,,*73
$GPRMC,162008,A,3214.60688,N,11053.13961,W,000.0,000.0,251013,,,A*65
$GPGGA,162039,3214.60855,N,11053.49302,W,1,04,1.0,742,M,000.0,M,,*75
$GPRMC,162039,A,3214.60855,N,11053.49302,W,000.0,000.0,251013,,,A*69
$GPGGA,162109,3214.60431,N,11053.52814,W,1,04,1.0,745,M,000.0,M,,*78
$GPRMC,162109,A,3214.60431,N,11053.52814,W,000.0,000.0,251013,,,A*63
$GPGGA,162140,3214.6043,N,11053.71993,W,1,04,1.0,745,M,000.0,M,,*4B
$GPRMC,162140,A,3214.6043,N,11053.71993,W,000.0,000.0,251013,,,A*50
$GPGGA,162210,3214.60522,N,11053.98139,W,1,04,1.0,740,M,000.0,M,,*75
$GPRMC,162210,A,3214.60522,N,11053.98139,W,000.0,000.0,251013,,,A*6B
$GPGGA,162240,3214.60737,N,11054.26951,W,1,04,1.0,738,M,000.0,M,,*7D
$GPRMC,162240,A,3214.60737,N,11054.26951,W,000.0,000.0,251013,,,A*6C
$GPGGA,162311,3214.60695,N,11054.53059,W,1,04,1.0,739,M,000.0,M,,*73
$GPRMC,162311,A,3214.60695,N,11054.53059,W,000.0,000.0,251013,,,A*63
$GPGGA,162341,3214.53931,N,11054.58461,W,1,04,1.0,743,M,000.0,M,,*7E
$GPRMC,162341,A,3214.53931,N,11054.58461,W,000.0,000.0,251013,,,A*63
$GPGGA,162411,3214.25096,N,11054.58797,W,1,04,1.0,744,M,000.0,M,,*74
$GPRMC,162411,A,3214.25096,N,11054.58797,W,000.0,000.0,251013,,,A*6E
$GPGGA,162442,3214.18255,N,11054.5875,W,1,04,1.0,749,M,000.0,M,,*47
$GPRMC,162442,A,3214.18255,N,11054.5875,W,000.0,000.0,251013,,,A*50
$GPGGA,162512,3214.17606,N,11054.85598,W,1,04,1.0,747,M,000.0,M,,*76
$GPRMC,162512,A,3214.17606,N,11054.85598,W,000.0,000.0,251013,,,A*6F
$GPGGA,162542,3214.17407,N,11055.17745,W,1,04,1.0,745,M,000.0,M,,*7A
$GPRMC,162542,A,3214.17407,N,11055.17745,W,000.0,000.0,251013,,,A*61
$GPGGA,162613,3214.16985,N,11055.48709,W,1,04,1.0,739,M,000.0,M,,*72
$GPRMC,162613,A,3214.16985,N,11055.48709,W,000.0,000.0,251013,,,A*62
$GPGGA,162643,3214.16605,N,11055.52659,W,1,04,1.0,738,M,000.0,M,,*7E
$GPRMC,162643,A,3214.16605,N,11055.52659,W,000.0,000.0,251013,,,A*6F
$GPGGA,162714,3214.16879,N,11055.77606,W,1,04,1.0,742,M,000.0,M,,*78
$GPRMC,162714,A,3214.16879,N,11055.77606,W,000.0,000.0,251013,,,A*64
$GPGGA,162744,3214.17238,N,11056.08406,W,1,04,1.0,738,M,000.0,M,,*77
$GPRMC,162744,A,3214.17238,N,11056.08406,W,000.0,000.0,251013,,,A*66
$GPGGA,162815,3214.16754,N,11056.41618,W,1,04,1.0,738,M,000.0,M,,*72
$GPRMC,162815,A,3214.16754,N,11056.41618,W,000.0,000.0,251013,,,A*63
$GPGGA,162846,3214.17145,N,11056.55997,W,1,04,1.0,742,M,000.0,M,,*73
$GPRMC,162846,A,3214.17145,N,11056.55997,W,000.0,000.0,251013,,,A*6F
$GPGGA,162916,3214.17127,N,11056.61582,W,1,04,1.0,742,M,000.0,M,,*7C
$GPRMC,162916,A,3214.17127,N,11056.61582,W,000.0,000.0,251013,,,A*60
$GPGGA,162947,3214.16897,N,11056.85528,W,1,04,1.0,742,M,000.0,M,,*71
$GPRMC,162947,A,3214.16897,N,11056.85528,W,000.0,000.0,251013,,,A*6D
$GPGGA,163018,3214.16861,N,11056.85458,W,1,04,1.0,740,M,000.0,M,,*7E
$GPRMC,163018,A,3214.16861,N,11056.85458,W,000.0,000.0,251013,,,A*60
$GPGGA,163048,3214.16572,N,11056.93521,W,1,04,1.0,741,M,000.0,M,,*7D
$GPRMC,163048,A,3214.16572,N,11056.93521,W,000.0,000.0,251013,,,A*62
$GPGGA,163119,3214.19452,N,11057.14547,W,1,04,1.0,739,M,000.0,M,,*75
$GPRMC,163119,A,3214.19452,N,11057.14547,W,000.0,000.0,251013,,,A*65
$GPGGA,163150,3214.23904,N,11057.24161,W,1,04,1.0,735,M,000.0,M,,*70
$GPRMC,163150,A,3214.23904,N,11057.24161,W,000.0,000.0,251013,,,A*6C
$GPGGA,163221,3214.23892,N,11057.31566,W,1,04,1.0,737,M,000.0,M,,*7E
$GPRMC,163221,A,3214.23892,N,11057.31566,W,000.0,000.0,251013,,,A*60
$GPGGA,163251,3214.20158,N,11057.32184,W,1,04,1.0,736,M,000.0,M,,*7F
$GPRMC,163251,A,3214.20158,N,11057.32184,W,000.0,000.0,251013,,,A*60
$GPGGA,163322,3214.21135,N,11057.33439,W,1,04,1.0,736,M,000.0,M,,*72
$GPRMC,163322,A,3214.21135,N,11057.33439,W,000.0,000.0,251013,,,A*6D
$GPGGA,163352,3214.19929,N,11057.32958,W,1,04,1.0,734,M,000.0,M,,*72
$GPRMC,163352,A,3214.19929,N,11057.32958,W,000.0,000.0,251013,,,A*6F
$GPGGA,163423,3214.19929,N,11057.32958,W,1,04,1.0,735,M,000.0,M,,*72
$GPRMC,163423,A,3214.19929,N,11057.32958,W,000.0,000.0,251013,,,A*6E
$GPGGA,163453,3214.19929,N,11057.32958,W,1,04,1.0,735,M,000.0,M,,*75
$GPRMC,163453,A,3214.19929,N,11057.32958,W,000.0,000.0,251013,,,A*69
