$GPGGA,013111.000,3222.3231,N,11108.3029,W,1,09,1.1,635.7,M,-27.6,M,,0000*6E
$GPGSA,A,3,27,22,18,14,21,03,06,24,19,,,,2.2,1.1,1.9*3B
$GPRMC,013111.000,A,3222.3231,N,11108.3029,W,39.71,333.10,241013,,,A*47
$GPGGA,013112.000,3222.3331,N,11108.3082,W,1,09,1.1,635.3,M,-27.6,M,,0000*69
$GPGSA,A,3,27,22,18,14,21,03,06,24,19,,,,2.2,1.1,1.9*3B
$GPRMC,013112.000,A,3222.3331,N,11108.3082,W,38.70,336.24,241013,,,A*46
$GPGGA,013113.000,3222.3429,N,11108.3132,W,1,09,1.1,635.2,M,-27.6,M,,0000*6D
$GPGSA,A,3,27,22,18,14,21,03,06,24,19,,,,2.2,1.1,1.9*3B
$GPRMC,013113.000,A,3222.3429,N,11108.3132,W,37.99,335.56,241013,,,A*4D
$GPGGA,013114.000,3222.3525,N,11108.3183,W,1,09,1.1,635.3,M,-27.6,M,,0000*6C
$GPGSA,A,3,27,22,18,14,21,03,06,24,19,,,,2.2,1.1,1.9*3B
$GPGSV,3,1,11,14,69,224,30,22,63,358,19,18,45,058,16,21,40,133,25*76
$GPGSV,3,2,11,27,37,258,34,06,34,245,28,03,28,267,30,19,28,298,30*72
$GPGSV,3,3,11,24,22,058,19,31,04,181,22,11,01,317,*40
$GPRMC,013114.000,A,3222.3525,N,11108.3183,W,37.76,335.86,241013,,,A*41
$GPGGA,013115.000,3222.3617,N,11108.3231,W,1,09,1.1,635.2,M,-27.6,M,,0000*64
$GPGSA,A,3,27,22,18,14,21,03,06,24,19,,,,2.2,1.1,1.9*3B
$GPRMC,013115.000,A,3222.3617,N,11108.3231,W,36.18,335.74,241013,,,A*4C
$GPGGA,013116.000,3222.3705,N,11108.3278,W,1,09,1.1,635.1,M,-27.6,M,,0000*6B
$GPGSA,A,3,27,22,18,14,21,03,06,24,19,,,,2.2,1.1,1.9*3B
$GPRMC,013116.000,A,3222.3705,N,11108.3278,W,34.11,335.58,241013,,,A*45
$GPGGA,013117.000,3222.3785,N,11108.3322,W,1,09,1.1,635.3,M,-27.6,M,,0000*6E
$GPGSA,A,3,27,22,18,14,21,03,06,24,19,,,,2.2,1.1,1.9*3B
$GPRMC,013117.000,A,3222.3785,N,11108.3322,W,30.87,335.14,241013,,,A*41
$GPGGA,013118.000,3222.3855,N,11108.3361,W,1,09,1.1,635.4,M,-27.6,M,,0000*63
$GPGSA,A,3,27,22,18,14,21,03,06,24,19,,,,2.2,1.1,1.9*3B
$GPRMC,013118.000,A,3222.3855,N,11108.3361,W,26.81,335.29,241013,,,A*44
$GPGGA,013119.000,3222.3914,N,11108.3391,W,1,09,1.1,635.8,M,-27.6,M,,0000*65
$GPGSA,A,3,27,22,18,14,21,03,06,24,19,,,,2.2,1.1,1.9*3B
$GPGSV,3,1,11,14,69,224,30,22,63,358,23,18,45,058,18,21,40,133,26*72
$GPGSV,3,2,11,27,37,258,35,06,34,245,28,03,28,267,31,19,28,298,31*73
$GPGSV,3,3,11,24,22,058,28,31,04,181,22,11,01,317,*42
$GPRMC,013119.000,A,3222.3914,N,11108.3391,W,21.89,335.91,241013,,,A*42
$GPGGA,013120.000,3222.3959,N,11108.3412,W,1,09,1.1,636.0,M,-27.6,M,,0000*61
$GPGSA,A,3,27,22,18,14,21,03,06,24,19,,,,2.2,1.1,1.9*3B
$GPRMC,013120.000,A,3222.3959,N,11108.3412,W,16.29,338.35,241013,,,A*40
$GPGGA,013121.000,3222.3991,N,11108.3426,W,1,09,1.1,636.0,M,-27.6,M,,0000*63
$GPGSA,A,3,27,22,18,14,21,03,06,24,19,,,,2.2,1.1,1.9*3B
$GPRMC,013121.000,A,3222.3991,N,11108.3426,W,12.68,342.84,241013,,,A*44
$GPGGA,013122.000,3222.4023,N,11108.3432,W,1,09,1.1,636.9,M,-27.6,M,,0000*6B
$GPGSA,A,3,27,22,18,14,21,03,06,24,19,,,,2.2,1.1,1.9*3B
$GPRMC,013122.000,A,3222.4023,N,11108.3432,W,12.27,357.68,241013,,,A*48
$GPGGA,013123.000,3222.4057,N,11108.3421,W,1,09,1.1,637.7,M,-27.6,M,,0000*64
$GPGSA,A,3,27,22,18,14,21,03,06,24,19,,,,2.2,1.1,1.9*3B
$GPRMC,013123.000,A,3222.4057,N,11108.3421,W,14.48,25.48,241013,,,A*73
$GPGGA,013124.000,3222.4087,N,11108.3383,W,1,09,1.1,638.9,M,-27.6,M,,0000*60
$GPGSA,A,3,27,22,18,14,21,03,06,24,19,,,,2.2,1.1,1.9*3B
$GPGSV,3,1,11,14,69,224,23,22,63,358,34,18,45,058,26,21,40,133,25*78
$GPGSV,3,2,11,27,37,258,28,06,34,245,24,03,28,267,27,19,28,298,30*75
$GPGSV,3,3,11,24,22,058,23,31,04,181,22,11,01,317,*49
$GPRMC,013124.000,A,3222.4087,N,11108.3383,W,17.14,51.14,241013,,,A*76
$GPGGA,013125.000,3222.4110,N,11108.3319,W,1,09,1.1,638.7,M,-27.6,M,,0000*63
$GPGSA,A,3,27,22,18,14,21,03,06,24,19,,,,2.2,1.1,1.9*3B
$GPRMC,013125.000,A,3222.4110,N,11108.3319,W,21.26,60.83,241013,,,A*73
$GPGGA,013126.000,3222.4137,N,11108.3243,W,1,09,1.1,637.9,M,-27.6,M,,0000*6A
$GPGSA,A,3,27,22,18,14,21,03,06,24,19,,,,2.2,1.1,1.9*3B
$GPRMC,013126.000,A,3222.4137,N,11108.3243,W,25.01,61.08,241013,,,A*78
$GPGGA,013127.000,3222.4167,N,11108.3157,W,1,09,1.1,637.2,M,-27.6,M,,0000*63
$GPGSA,A,3,27,22,18,14,21,03,06,24,19,,,,2.2,1.1,1.9*3B
$GPRMC,013127.000,A,3222.4167,N,11108.3157,W,28.00,63.61,241013,,,A*7B
$GPGGA,013128.000,3222.4204,N,11108.3066,W,1,09,1.1,637.1,M,-27.6,M,,0000*6A
$GPGSA,A,3,27,22,18,14,21,03,06,24,19,,,,2.2,1.1,1.9*3B
$GPRMC,013128.000,A,3222.4204,N,11108.3066,W,30.61,63.66,241013,,,A*78
$GPGGA,013129.000,3222.4245,N,11108.2969,W,1,09,1.1,636.6,M,-27.6,M,,0000*6F
$GPGSA,A,3,27,22,18,14,21,03,06,24,19,,,,2.2,1.1,1.9*3B
$GPGSV,3,1,11,14,69,224,22,22,63,358,35,18,45,058,33,21,40,133,18*72
$GPGSV,3,2,11,27,37,258,28,06,34,245,25,03,28,267,23,19,28,298,28*79
$GPGSV,3,3,11,24,22,058,24,31,04,181,22,11,01,317,*4E
$GPRMC,013129.000,A,3222.4245,N,11108.2969,W,32.79,63.43,241013,,,A*77
$GPGGA,013130.000,3222.4286,N,11108.2866,W,1,09,1.1,636.7,M,-27.6,M,,0000*67
$GPGSA,A,3,27,22,18,14,21,03,06,24,19,,,,2.2,1.1,1.9*3B
$GPRMC,013130.000,A,3222.4286,N,11108.2866,W,34.02,64.81,241013,,,A*7D
$GPGGA,013131.000,3222.4328,N,11108.2760,W,1,09,1.1,636.2,M,-27.6,M,,0000*6F
$GPGSA,A,3,27,22,18,14,21,03,06,24,19,,,,2.2,1.1,1.9*3B
$GPRMC,013131.000,A,3222.4328,N,11108.2760,W,35.10,64.89,241013,,,A*7A
$GPGGA,013132.000,3222.4372,N,11108.2651,W,1,08,1.1,635.6,M,-27.6,M,,0000*66
$GPGSA,A,3,27,22,18,21,03,06,24,19,,,,,2.7,1.1,2.4*35
$GPRMC,013132.000,A,3222.4372,N,11108.2651,W,36.11,65.31,241013,,,A*75
$GPGGA,013133.000,3222.4419,N,11108.2540,W,1,09,1.1,635.4,M,-27.6,M,,0000*6D
$GPGSA,A,3,27,22,18,14,21,03,06,24,19,,,,2.2,1.1,1.9*3B
$GPRMC,013133.000,A,3222.4419,N,11108.2540,W,36.69,64.01,241013,,,A*70
$GPGGA,013134.000,3222.4464,N,11108.2428,W,1,09,1.1,635.5,M,-27.6,M,,0000*6E
$GPGSA,A,3,27,22,18,14,21,03,06,24,19,,,,2.2,1.1,1.9*3B
$GPGSV,3,1,11,14,69,224,14,22,63,358,28,18,45,058,28,21,40,133,16*7F
$GPGSV,3,2,11,27,37,258,26,06,34,245,26,03,28,267,23,19,28,298,19*76
$GPGSV,3,3,11,24,22,058,29,31,04,181,20,11,01,317,*41
$GPRMC,013134.000,A,3222.4464,N,11108.2428,W,37.16,64.10,241013,,,A*7B
$GPGGA,013135.000,3222.4508,N,11108.2316,W,1,09,1.1,635.4,M,-27.6,M,,0000*6F
$GPGSA,A,3,27,22,18,14,21,03,06,24,19,,,,2.2,1.1,1.9*3B
$GPRMC,013135.000,A,3222.4508,N,11108.2316,W,37.43,64.12,241013,,,A*79
$GPGGA,013136.000,3222.4550,N,11108.2201,W,1,09,1.1,635.4,M,-27.6,M,,0000*66
$GPGSA,A,3,27,22,18,14,21,03,06,24,19,,,,2.2,1.1,1.9*3B
$GPRMC,013136.000,A,3222.4550,N,11108.2201,W,37.67,65.51,241013,,,A*70
$GPGGA,013137.000,3222.4596,N,11108.2089,W,1,09,1.1,635.2,M,-27.6,M,,0000*69
$GPGSA,A,3,27,22,18,14,21,03,06,24,19,,,,2.2,1.1,1.9*3B
$GPRMC,013137.000,A,3222.4596,N,11108.2089,W,37.51,64.80,241013,,,A*71
$GPGGA,013138.000,3222.4644,N,11108.1977,W,1,09,1.1,634.4,M,-27.6,M,,0000*66
$GPGSA,A,3,27,22,18,14,21,03,06,24,19,,,,2.2,1.1,1.9*3B
$GPRMC,013138.000,A,3222.4644,N,11108.1977,W,37.43,63.42,241013,,,A*73
$GPGGA,013139.000,3222.4691,N,11108.1865,W,1,09,1.1,633.7,M,-27.6,M,,0000*69
$GPGSA,A,3,27,22,18,14,21,03,06,24,19,,,,2.2,1.1,1.9*3B
$GPGSV,3,1,11,14,69,224,19,22,63,358,28,18,45,058,32,21,40,133,21*7D
$GPGSV,3,2,11,27,37,258,29,06,34,245,31,03,28,267,23,19,28,298,21*74
$GPGSV,3,3,11,24,22,058,32,31,04,181,18,11,01,317,*40
$GPRMC,013139.000,A,3222.4691,N,11108.1865,W,37.52,64.15,241013,,,A*7D
$GPGGA,013140.000,3222.4736,N,11108.1753,W,1,09,1.1,633.5,M,-27.6,M,,0000*63
$GPGSA,A,3,27,22,18,14,21,03,06,24,19,,,,2.2,1.1,1.9*3B
$GPRMC,013140.000,A,3222.4736,N,11108.1753,W,37.14,63.87,241013,,,A*7B
$GPGGA,013141.000,3222.4783,N,11108.1644,W,1,09,1.1,632.9,M,-27.6,M,,0000*66
$GPGSA,A,3,27,22,18,14,21,03,06,24,19,,,,2.2,1.1,1.9*3B
$GPRMC,013141.000,A,3222.4783,N,11108.1644,W,36.78,63.40,241013,,,A*73
$GPGGA,013142.000,3222.4826,N,11108.1534,W,1,08,1.1,632.9,M,-27.6,M,,0000*60
$GPGSA,A,3,27,22,18,21,03,06,24,19,,,,,2.7,1.1,2.4*35
$GPRMC,013142.000,A,3222.4826,N,11108.1534,W,36.75,64.61,241013,,,A*7D
$GPGGA,013143.000,3222.4869,N,11108.1423,W,1,09,1.1,632.2,M,-27.6,M,,0000*67
$GPGSA,A,3,27,22,18,14,21,03,06,24,19,,,,2.2,1.1,1.9*3B
$GPRMC,013143.000,A,3222.4869,N,11108.1423,W,36.55,64.22,241013,,,A*75
$GPGGA,013144.000,3222.4912,N,11108.1314,W,1,08,1.1,632.2,M,-27.6,M,,0000*6F
$GPGSA,A,3,27,22,18,21,03,06,24,19,,,,,2.7,1.1,2.4*35
$GPGSV,3,1,11,14,69,224,12,22,63,358,28,18,45,058,32,21,40,133,23*74
$GPGSV,3,2,11,27,37,258,29,06,34,245,31,03,28,267,23,19,28,298,28*7D
$GPGSV,3,3,11,24,22,058,31,31,04,181,17,11,01,317,*4C
$GPRMC,013144.000,A,3222.4912,N,11108.1314,W,36.41,65.02,241013,,,A*7A
$GPGGA,013145.000,3222.4954,N,11108.1206,W,1,08,1.1,631.9,M,-27.6,M,,0000*66
$GPGSA,A,3,27,22,18,21,03,06,24,19,,,,,2.7,1.1,2.4*35
$GPRMC,013145.000,A,3222.4954,N,11108.1206,W,36.18,66.14,241013,,,A*73
$GPGGA,013146.000,3222.4995,N,11108.1097,W,1,08,1.1,631.6,M,-27.6,M,,0000*6D
$GPGSA,A,3,27,22,18,21,03,06,24,19,,,,,2.7,1.1,2.4*35
$GPRMC,013146.000,A,3222.4995,N,11108.1097,W,36.17,66.79,241013,,,A*73
$GPGGA,013147.000,3222.5035,N,11108.0987,W,1,08,1.1,631.2,M,-27.6,M,,0000*63
$GPGSA,A,3,27,22,18,21,03,06,24,19,,,,,2.7,1.1,2.4*35
$GPRMC,013147.000,A,3222.5035,N,11108.0987,W,36.60,68.12,241013,,,A*7A
$GPGGA,013148.000,3222.5073,N,11108.0874,W,1,08,1.1,630.7,M,-27.6,M,,0000*67
$GPGSA,A,3,27,22,18,21,03,06,24,19,,,,,2.7,1.1,2.4*35
$GPRMC,013148.000,A,3222.5073,N,11108.0874,W,37.26,69.46,241013,,,A*79
$GPGGA,013149.000,3222.5107,N,11108.0758,W,1,09,1.1,630.8,M,-27.6,M,,0000*6B
$GPGSA,A,3,27,22,18,14,21,03,06,24,19,,,,2.2,1.1,1.9*3B
$GPGSV,3,1,12,14,69,224,21,22,63,358,34,18,45,058,32,21,40,133,29*70
$GPGSV,3,2,12,27,37,258,29,06,34,245,30,03,28,267,23,19,28,298,20*77
$GPGSV,3,3,12,24,22,058,23,31,04,181,24,11,01,317,,51,52,172,30*78
$GPRMC,013149.000,A,3222.5107,N,11108.0758,W,37.85,71.57,241013,,,A*7B
$GPGGA,013150.000,3222.5140,N,11108.0638,W,1,09,1.1,630.4,M,-27.6,M,,0000*6B
$GPGSA,A,3,27,22,18,14,21,03,06,24,19,,,,2.2,1.1,1.9*3B
$GPRMC,013150.000,A,3222.5140,N,11108.0638,W,38.75,73.06,241013,,,A*71
$GPGGA,013151.000,3222.5171,N,11108.0517,W,1,09,1.1,630.1,M,-27.6,M,,0000*63
$GPGSA,A,3,27,22,18,14,21,03,06,24,19,,,,2.2,1.1,1.9*3B
$GPRMC,013151.000,A,3222.5171,N,11108.0517,W,38.53,74.31,241013,,,A*7B
$GPGGA,013152.000,3222.5201,N,11108.0395,W,1,09,1.1,629.3,M,-27.6,M,,0000*62
$GPGSA,A,3,27,22,18,14,21,03,06,24,19,,,,2.2,1.1,1.9*3B
$GPRMC,013152.000,A,3222.5201,N,11108.0395,W,38.17,74.92,241013,,,A*79
$GPGGA,013153.000,3222.5227,N,11108.0274,W,1,09,1.1,629.2,M,-27.6,M,,0000*68
$GPGSA,A,3,27,22,18,14,21,03,06,24,19,,,,2.2,1.1,1.9*3B
$GPRMC,013153.000,A,3222.5227,N,11108.0274,W,38.12,77.22,241013,,,A*7F
$GPGGA,013154.000,3222.5248,N,11108.0152,W,1,09,1.1,628.8,M,-27.6,M,,0000*6A
$GPGSA,A,3,27,22,18,14,21,03,06,24,19,,,,2.2,1.1,1.9*3B
$GPGSV,3,1,12,14,69,224,24,22,63,358,34,18,45,058,31,21,40,133,22*7D
$GPGSV,3,2,12,27,37,258,30,06,34,245,24,03,28,267,29,19,28,298,29*79
$GPGSV,3,3,12,24,22,058,30,31,04,181,16,11,01,317,,51,52,172,32*79
$GPRMC,013154.000,A,3222.5248,N,11108.0152,W,37.69,79.04,241013,,,A*7F
$GPGGA,013155.000,3222.5267,N,11108.0033,W,1,09,1.1,629.5,M,-27.6,M,,0000*6C
$GPGSA,A,3,27,22,18,14,21,03,06,24,19,,,,2.2,1.1,1.9*3B
$GPRMC,013155.000,A,3222.5267,N,11108.0033,W,37.33,80.16,241013,,,A*7F
$GPGGA,013156.000,3222.5284,N,11107.9913,W,1,09,1.1,628.8,M,-27.6,M,,0000*63
$GPGSA,A,3,27,22,18,14,21,03,06,24,19,,,,2.2,1.1,1.9*3B
$GPRMC,013156.000,A,3222.5284,N,11107.9913,W,36.73,80.82,241013,,,A*74
$GPGGA,013157.000,3222.5300,N,11107.9793,W,1,09,1.1,628.6,M,-27.6,M,,0000*67
$GPGSA,A,3,27,22,18,14,21,03,06,24,19,,,,2.2,1.1,1.9*3B
$GPRMC,013157.000,A,3222.5300,N,11107.9793,W,36.53,81.79,241013,,,A*79
$GPGGA,013158.000,3222.5313,N,11107.9674,W,1,09,1.1,628.9,M,-27.6,M,,0000*6D
$GPGSA,A,3,27,22,18,14,21,03,06,24,19,,,,2.2,1.1,1.9*3B
$GPRMC,013158.000,A,3222.5313,N,11107.9674,W,36.31,83.46,241013,,,A*76
$GPGGA,013159.000,3222.5322,N,11107.9556,W,1,09,1.1,629.3,M,-27.6,M,,0000*66
$GPGSA,A,3,27,22,18,14,21,03,06,24,19,,,,2.2,1.1,1.9*3B
$GPGSV,3,1,12,14,69,224,24,22,63,358,33,18,45,058,29,21,40,133,22*73
$GPGSV,3,2,12,27,37,258,30,06,34,245,22,03,28,267,28,19,28,298,25*72
$GPGSV,3,3,12,24,22,058,33,31,04,181,17,11,01,317,,51,52,172,27*7F
$GPRMC,013159.000,A,3222.5322,N,11107.9556,W,35.61,84.68,241013,,,A*7B
$GPGGA,013200.000,3222.5328,N,11107.9439,W,1,09,1.1,629.7,M,-27.6,M,,0000*6F
$GPGSA,A,3,27,22,18,14,21,03,06,24,19,,,,2.2,1.1,1.9*3B
$GPRMC,013200.000,A,3222.5328,N,11107.9439,W,35.75,87.74,241013,,,A*7D
$GPGGA,013201.000,3222.5332,N,11107.9322,W,1,08,1.6,629.3,M,-27.6,M,,0000*6A
$GPGSA,A,3,27,22,18,14,03,06,24,19,,,,,2.6,1.6,2.0*31
$GPRMC,013201.000,A,3222.5332,N,11107.9322,W,35.39,88.55,241013,,,A*7E
$GPGGA,013202.000,3222.5333,N,11107.9206,W,1,08,1.6,629.3,M,-27.6,M,,0000*6F
$GPGSA,A,3,27,22,18,14,03,06,24,19,,,,,2.6,1.6,2.0*31
$GPRMC,013202.000,A,3222.5333,N,11107.9206,W,34.94,88.67,241013,,,A*7C
$GPGGA,013203.000,3222.5333,N,11107.9092,W,1,08,1.6,629.0,M,-27.6,M,,0000*62
$GPGSA,A,3,27,22,18,14,03,06,24,19,,,,,2.6,1.6,2.0*31
$GPRMC,013203.000,A,3222.5333,N,11107.9092,W,34.71,90.75,241013,,,A*73
$GPGGA,013204.000,3222.5332,N,11107.8980,W,1,08,1.6,628.5,M,-27.6,M,,0000*6B
$GPGSA,A,3,27,22,18,14,03,06,24,19,,,,,2.6,1.6,2.0*31
$GPGSV,3,1,12,14,69,224,15,22,63,358,33,18,45,058,33,21,40,133,*7A
$GPGSV,3,2,12,27,37,258,31,06,34,245,27,03,28,267,28,19,28,298,21*72
$GPGSV,3,3,12,24,22,058,28,31,04,181,17,11,01,317,,51,52,172,27*75
$GPRMC,013204.000,A,3222.5332,N,11107.8980,W,33.90,90.75,241013,,,A*76
$GPGGA,013205.000,3222.5322,N,11107.8867,W,1,09,1.1,628.1,M,-27.6,M,,0000*61
$GPGSA,A,3,27,22,18,14,21,03,06,24,19,,,,2.2,1.1,1.9*3B
$GPRMC,013205.000,A,3222.5322,N,11107.8867,W,33.89,92.87,241013,,,A*79
$GPGGA,013206.000,3222.5311,N,11107.8753,W,1,09,1.1,627.7,M,-27.6,M,,0000*63
$GPGSA,A,3,27,22,18,14,21,03,06,24,19,,,,2.2,1.1,1.9*3B
$GPRMC,013206.000,A,3222.5311,N,11107.8753,W,34.10,95.10,241013,,,A*7C
$GPGGA,013207.000,3222.5299,N,11107.8640,W,1,09,1.1,627.2,M,-27.6,M,,0000*65
$GPGSA,A,3,27,22,18,14,21,03,06,24,19,,,,2.2,1.1,1.9*3B
$GPRMC,013207.000,A,3222.5299,N,11107.8640,W,34.23,95.56,241013,,,A*7D
$GPGGA,013208.000,3222.5286,N,11107.8527,W,1,09,1.1,626.9,M,-27.6,M,,0000*6C
$GPGSA,A,3,27,22,18,14,21,03,06,24,19,,,,2.2,1.1,1.9*3B
$GPRMC,013208.000,A,3222.5286,N,11107.8527,W,34.56,96.61,241013,,,A*7B
$GPGGA,013209.000,3222.5273,N,11107.8413,W,1,09,1.1,626.7,M,-27.6,M,,0000*6F
$GPGSA,A,3,27,22,18,14,21,03,06,24,19,,,,2.2,1.1,1.9*3B
$GPGSV,3,1,12,14,69,224,18,22,63,358,32,18,45,058,28,21,40,133,22*7C
$GPGSV,3,2,12,27,37,258,24,06,34,245,25,03,28,267,26,19,28,298,24*7F
$GPGSV,3,3,12,24,22,058,28,31,04,181,17,11,01,317,,51,52,172,28*7A
$GPRMC,013209.000,A,3222.5273,N,11107.8413,W,35.13,98.04,241013,,,A*7B
$GPGGA,013210.000,3222.5261,N,11107.8299,W,1,09,1.1,627.0,M,-27.6,M,,0000*66
$GPGSA,A,3,27,22,18,14,21,03,06,24,19,,,,2.2,1.1,1.9*3B
$GPRMC,013210.000,A,3222.5261,N,11107.8299,W,35.56,97.24,241013,,,A*78
$GPGGA,013211.000,3222.5247,N,11107.8184,W,1,09,1.1,627.8,M,-27.6,M,,0000*64
$GPGSA,A,3,27,22,18,14,21,03,06,24,19,,,,2.2,1.1,1.9*3B
$GPRMC,013211.000,A,3222.5247,N,11107.8184,W,35.44,97.53,241013,,,A*71
$GPGGA,013212.000,3222.5239,N,11107.8072,W,1,09,1.1,628.0,M,-27.6,M,,0000*61
$GPGSA,A,3,27,22,18,14,21,03,06,24,19,,,,2.2,1.1,1.9*3B
$GPRMC,013212.000,A,3222.5239,N,11107.8072,W,35.41,97.53,241013,,,A*76
$GPGGA,013213.000,3222.5225,N,11107.7956,W,1,09,1.1,628.0,M,-27.6,M,,0000*6D
$GPGSA,A,3,27,22,18,14,21,03,06,24,19,,,,2.2,1.1,1.9*3B
$GPRMC,013213.000,A,3222.5225,N,11107.7956,W,35.45,98.30,241013,,,A*74
$GPGGA,013214.000,3222.5213,N,11107.7843,W,1,09,1.1,628.1,M,-27.6,M,,0000*6B
$GPGSA,A,3,27,22,18,14,21,03,06,24,19,,,,2.2,1.1,1.9*3B
$GPGSV,3,1,12,14,69,224,24,22,63,358,31,18,45,058,27,21,40,133,22*7F
$GPGSV,3,2,12,27,37,258,22,06,34,245,27,03,28,267,27,19,28,298,24*7A
$GPGSV,3,3,12,24,22,058,28,31,04,181,17,11,01,317,,51,52,172,25*77
$GPRMC,013214.000,A,3222.5213,N,11107.7843,W,35.39,97.89,241013,,,A*75
$GPGGA,013215.000,3222.5198,N,11107.7727,W,1,09,1.1,628.3,M,-27.6,M,,0000*65
$GPGSA,A,3,27,22,18,14,21,03,06,24,19,,,,2.2,1.1,1.9*3B
$GPRMC,013215.000,A,3222.5198,N,11107.7727,W,35.52,98.15,241013,,,A*7E
$GPGGA,013216.000,3222.5182,N,11107.7608,W,1,09,1.1,628.9,M,-27.6,M,,0000*6B
$GPGSA,A,3,27,22,18,14,21,03,06,24,19,,,,2.2,1.1,1.9*3B
$GPRMC,013216.000,A,3222.5182,N,11107.7608,W,36.20,97.93,241013,,,A*7D
$GPGGA,013217.000,3222.5165,N,11107.7489,W,1,09,1.1,629.0,M,-27.6,M,,0000*60
$GPGSA,A,3,27,22,18,14,21,03,06,24,19,,,,2.2,1.1,1.9*3B
$GPRMC,013217.000,A,3222.5165,N,11107.7489,W,36.17,97.56,241013,,,A*73
$GPGGA,013218.000,3222.5149,N,11107.7370,W,1,09,1.1,629.8,M,-27.6,M,,0000*68
$GPGSA,A,3,27,22,18,14,21,03,06,24,19,,,,2.2,1.1,1.9*3B
$GPRMC,013218.000,A,3222.5149,N,11107.7370,W,36.15,98.13,241013,,,A*7F
$GPGGA,013219.000,3222.5132,N,11107.7253,W,1,08,1.1,629.7,M,-27.6,M,,0000*6B
$GPGSA,A,3,27,22,18,21,03,06,24,19,,,,,2.7,1.1,2.4*35
$GPGSV,3,1,11,14,69,224,10,22,63,358,31,18,45,058,27,21,40,133,23*7A
$GPGSV,3,2,11,27,37,258,21,06,34,245,22,03,28,267,17,19,28,298,13*78
$GPGSV,3,3,11,24,22,058,28,31,04,181,16,11,01,317,*45
$GPRMC,013219.000,A,3222.5132,N,11107.7253,W,36.03,98.79,241013,,,A*79
$GPGGA,013220.000,3222.5118,N,11107.7137,W,1,09,1.1,630.1,M,-27.6,M,,0000*67
$GPGSA,A,3,27,22,18,14,21,03,06,24,19,,,,2.2,1.1,1.9*3B
$GPRMC,013220.000,A,3222.5118,N,11107.7137,W,35.93,98.58,241013,,,A*73
$GPGGA,013221.000,3222.5103,N,11107.7020,W,1,08,1.1,630.4,M,-27.6,M,,0000*6F
$GPGSA,A,3,22,18,14,21,03,06,24,19,,,,,2.2,1.1,1.9*3E
$GPRMC,013221.000,A,3222.5103,N,11107.7020,W,35.88,100.06,241013,,,A*4E
$GPGGA,013222.000,3222.5087,N,11107.6906,W,1,08,1.1,630.5,M,-27.6,M,,0000*6C
$GPGSA,A,3,22,18,14,21,03,06,24,19,,,,,2.2,1.1,1.9*3E
$GPRMC,013222.000,A,3222.5087,N,11107.6906,W,35.60,99.79,241013,,,A*73
$GPGGA,013223.000,3222.5071,N,11107.6791,W,1,09,1.1,630.7,M,-27.6,M,,0000*67
$GPGSA,A,3,27,22,18,14,21,03,06,24,19,,,,2.2,1.1,1.9*3B
$GPRMC,013223.000,A,3222.5071,N,11107.6791,W,34.63,98.52,241013,,,A*71
$GPGGA,013224.000,3222.5056,N,11107.6680,W,1,09,1.1,630.6,M,-27.6,M,,0000*65
$GPGSA,A,3,27,22,18,14,21,03,06,24,19,,,,2.2,1.1,1.9*3B
$GPGSV,3,1,11,14,69,224,14,22,63,358,32,18,45,058,29,21,40,133,25*75
$GPGSV,3,2,11,27,37,258,13,06,34,245,20,03,28,267,19,19,28,298,17*71
$GPGSV,3,3,11,24,22,058,29,31,04,181,16,11,01,317,*44
$GPRMC,013224.000,A,3222.5056,N,11107.6680,W,33.99,98.44,241013,,,A*77
$GPGGA,013225.000,3222.5042,N,11107.6570,W,1,09,1.1,630.5,M,-27.6,M,,0000*6E
$GPGSA,A,3,27,22,18,14,21,03,06,24,19,,,,2.2,1.1,1.9*3B
$GPRMC,013225.000,A,3222.5042,N,11107.6570,W,33.33,98.85,241013,,,A*72
$GPGGA,013226.000,3222.5029,N,11107.6463,W,1,09,1.1,630.3,M,-27.6,M,,0000*65
$GPGSA,A,3,27,22,18,14,21,03,06,24,19,,,,2.2,1.1,1.9*3B
$GPRMC,013226.000,A,3222.5029,N,11107.6463,W,32.83,98.39,241013,,,A*72
$GPGGA,013227.000,3222.5016,N,11107.6358,W,1,09,1.1,630.2,M,-27.6,M,,0000*66
$GPGSA,A,3,27,22,18,14,21,03,06,24,19,,,,2.2,1.1,1.9*3B
$GPRMC,013227.000,A,3222.5016,N,11107.6358,W,32.17,97.60,241013,,,A*7E
$GPGGA,013228.000,3222.5003,N,11107.6255,W,1,09,1.1,630.2,M,-27.6,M,,0000*61
$GPGSA,A,3,27,22,18,14,21,03,06,24,19,,,,2.2,1.1,1.9*3B
$GPRMC,013228.000,A,3222.5003,N,11107.6255,W,31.19,97.53,241013,,,A*74
$GPGGA,013229.000,3222.4991,N,11107.6153,W,1,09,1.1,630.3,M,-27.6,M,,0000*67
$GPGSA,A,3,27,22,18,14,21,03,06,24,19,,,,2.2,1.1,1.9*3B
$GPGSV,3,1,11,14,70,225,13,22,63,001,32,18,44,059,29,21,39,134,26*7E
$GPGSV,3,2,11,27,36,257,14,06,33,244,19,19,28,297,24,03,27,265,23*7F
$GPGSV,3,3,11,24,22,056,30,31,05,180,16,11,02,317,*41
$GPRMC,013229.000,A,3222.4991,N,11107.6153,W,31.29,98.17,241013,,,A*7F
$GPGGA,013230.000,3222.4978,N,11107.6050,W,1,08,1.1,630.3,M,-27.6,M,,0000*6B
$GPGSA,A,3,27,22,18,21,03,06,24,19,,,,,2.7,1.1,2.4*35
$GPRMC,013230.000,A,3222.4978,N,11107.6050,W,31.59,98.24,241013,,,A*75
$GPGGA,013231.000,3222.4964,N,11107.5943,W,1,08,1.1,630.7,M,-27.6,M,,0000*6B
$GPGSA,A,3,27,22,18,21,03,06,24,19,,,,,2.7,1.1,2.4*35
$GPRMC,013231.000,A,3222.4964,N,11107.5943,W,33.11,98.57,241013,,,A*7B
$GPGGA,013232.000,3222.4950,N,11107.5833,W,1,08,1.1,630.9,M,-27.6,M,,0000*67
$GPGSA,A,3,27,22,18,21,03,06,24,19,,,,,2.7,1.1,2.4*35
$GPRMC,013232.000,A,3222.4950,N,11107.5833,W,34.28,98.77,241013,,,A*76
$GPGGA,013233.000,3222.4936,N,11107.5723,W,1,08,1.1,630.6,M,-27.6,M,,0000*67
$GPGSA,A,3,27,22,18,21,03,06,24,19,,,,,2.7,1.1,2.4*35
$GPRMC,013233.000,A,3222.4936,N,11107.5723,W,34.13,98.75,241013,,,A*73
$GPGGA,013234.000,3222.4923,N,11107.5613,W,1,08,1.1,630.2,M,-27.6,M,,0000*62
$GPGSA,A,3,27,22,18,21,03,06,24,19,,,,,2.7,1.1,2.4*35
$GPGSV,3,1,11,14,70,225,,22,63,001,32,18,44,059,30,21,39,134,27*75
$GPGSV,3,2,11,27,36,257,15,06,33,244,19,19,28,297,23,03,27,265,25*7F
$GPGSV,3,3,11,24,22,056,30,31,05,180,16,11,02,317,*41
$GPRMC,013234.000,A,3222.4923,N,11107.5613,W,34.75,98.34,241013,,,A*77
$GPGGA,013235.000,3222.4910,N,11107.5500,W,1,08,1.1,629.8,M,-27.6,M,,0000*60
$GPGSA,A,3,27,22,18,21,03,06,24,19,,,,,2.7,1.1,2.4*35
$GPRMC,013235.000,A,3222.4910,N,11107.5500,W,35.17,98.03,241013,,,A*76
$GPGGA,013236.000,3222.4895,N,11107.5384,W,1,08,1.1,630.3,M,-27.6,M,,0000*66
$GPGSA,A,3,27,22,18,21,03,06,24,19,,,,,2.7,1.1,2.4*35
$GPRMC,013236.000,A,3222.4895,N,11107.5384,W,35.32,98.23,241013,,,A*76
$GPGGA,013237.000,3222.4878,N,11107.5268,W,1,08,1.1,630.8,M,-27.6,M,,0000*6C
$GPGSA,A,3,27,22,18,21,03,06,24,19,,,,,2.7,1.1,2.4*35
$GPRMC,013237.000,A,3222.4878,N,11107.5268,W,35.18,98.24,241013,,,A*78
$GPGGA,013238.000,3222.4862,N,11107.5152,W,1,07,1.2,631.2,M,-27.6,M,,0000*65
$GPGSA,A,3,27,22,18,21,03,24,19,,,,,,2.7,1.2,2.4*30
$GPRMC,013238.000,A,3222.4862,N,11107.5152,W,35.31,98.52,241013,,,A*7C
$GPGGA,013239.000,3222.4848,N,11107.5037,W,1,07,1.2,631.5,M,-27.6,M,,0000*69
$GPGSA,A,3,27,22,18,21,03,24,19,,,,,,2.7,1.2,2.4*30
$GPGSV,3,1,11,14,70,225,,22,63,001,33,18,44,059,30,21,39,134,28*7B
$GPGSV,3,2,11,27,36,257,14,06,33,244,08,19,28,297,23,03,27,265,24*7F
$GPGSV,3,3,11,24,22,056,30,31,05,180,21,11,02,317,*45
$GPRMC,013239.000,A,3222.4848,N,11107.5037,W,35.48,98.04,241013,,,A*7A
$GPGGA,013240.000,3222.4835,N,11107.4922,W,1,07,1.2,631.7,M,-27.6,M,,0000*63
$GPGSA,A,3,27,22,18,21,03,24,19,,,,,,2.7,1.2,2.4*30
$GPRMC,013240.000,A,3222.4835,N,11107.4922,W,35.04,98.14,241013,,,A*7B
$GPGGA,013241.000,3222.4823,N,11107.4808,W,1,08,1.1,631.9,M,-27.6,M,,0000*6E
$GPGSA,A,3,27,22,18,21,03,06,24,19,,,,,2.7,1.1,2.4*35
$GPRMC,013241.000,A,3222.4823,N,11107.4808,W,34.69,97.52,241013,,,A*73
$GPGGA,013242.000,3222.4811,N,11107.4694,W,1,08,1.1,632.2,M,-27.6,M,,0000*6F
$GPGSA,A,3,27,22,18,21,03,06,24,19,,,,,2.7,1.1,2.4*35
$GPRMC,013242.000,A,3222.4811,N,11107.4694,W,34.67,97.71,241013,,,A*75
$GPGGA,013243.000,3222.4800,N,11107.4582,W,1,08,1.1,632.1,M,-27.6,M,,0000*69
$GPGSA,A,3,27,22,18,21,03,06,24,19,,,,,2.7,1.1,2.4*35
$GPRMC,013243.000,A,3222.4800,N,11107.4582,W,34.32,97.60,241013,,,A*70
$GPGGA,013244.000,3222.4786,N,11107.4468,W,1,08,1.1,632.6,M,-27.6,M,,0000*6D
$GPGSA,A,3,27,22,18,21,03,06,24,19,,,,,2.7,1.1,2.4*35
$GPGSV,3,1,11,14,70,225,,22,63,001,33,18,44,059,30,21,39,134,28*7B
$GPGSV,3,2,11,27,36,257,16,06,33,244,16,19,28,297,22,03,27,265,23*74
$GPGSV,3,3,11,24,22,056,30,31,05,180,19,11,02,317,*4E
$GPRMC,013244.000,A,3222.4786,N,11107.4468,W,35.54,98.13,241013,,,A*79
$GPGGA,013245.000,3222.4772,N,11107.4351,W,1,08,1.1,633.1,M,-27.6,M,,0000*6C
$GPGSA,A,3,27,22,18,21,03,06,24,19,,,,,2.7,1.1,2.4*35
$GPRMC,013245.000,A,3222.4772,N,11107.4351,W,35.80,98.70,241013,,,A*72
$GPGGA,013246.000,3222.4759,N,11107.4235,W,1,09,1.1,633.5,M,-27.6,M,,0000*60
$GPGSA,A,3,27,22,18,14,21,03,06,24,19,,,,2.2,1.1,1.9*3B
$GPRMC,013246.000,A,3222.4759,N,11107.4235,W,35.89,97.59,241013,,,A*76
$GPGGA,013247.000,3222.4748,N,11107.4118,W,1,09,1.1,633.9,M,-27.6,M,,0000*61
$GPGSA,A,3,27,22,18,14,21,03,06,24,19,,,,2.2,1.1,1.9*3B
$GPRMC,013247.000,A,3222.4748,N,11107.4118,W,35.69,97.57,241013,,,A*7B
$GPGGA,013248.000,3222.4736,N,11107.4001,W,1,09,1.1,633.8,M,-27.6,M,,0000*6F
$GPGSA,A,3,27,22,18,14,21,03,06,24,19,,,,2.2,1.1,1.9*3B
$GPRMC,013248.000,A,3222.4736,N,11107.4001,W,35.77,97.60,241013,,,A*7F
$GPGGA,013249.000,3222.4723,N,11107.3886,W,1,09,1.1,634.0,M,-27.6,M,,0000*65
$GPGSA,A,3,27,22,18,14,21,03,06,24,19,,,,2.2,1.1,1.9*3B
$GPGSV,3,1,11,14,70,225,23,22,63,001,24,18,44,059,25,21,39,134,27*77
$GPGSV,3,2,11,27,36,257,21,06,33,244,26,19,28,297,22,03,27,265,25*75
$GPGSV,3,3,11,24,22,056,30,31,05,180,23,11,02,317,*47
$GPRMC,013249.000,A,3222.4723,N,11107.3886,W,35.38,97.78,241013,,,A*78
$GPGGA,013250.000,3222.4708,N,11107.3771,W,1,09,1.1,633.5,M,-27.6,M,,0000*61
$GPGSA,A,3,27,22,18,14,21,03,06,24,19,,,,2.2,1.1,1.9*3B
$GPRMC,013250.000,A,3222.4708,N,11107.3771,W,35.07,98.42,241013,,,A*74
$GPGGA,013251.000,3222.4693,N,11107.3659,W,1,09,1.1,633.2,M,-27.6,M,,0000*6F
$GPGSA,A,3,27,22,18,14,21,03,06,24,19,,,,2.2,1.1,1.9*3B
$GPRMC,013251.000,A,3222.4693,N,11107.3659,W,34.79,97.79,241013,,,A*72
$GPGGA,013252.000,3222.4678,N,11107.3545,W,1,09,1.1,633.8,M,-27.6,M,,0000*6D
$GPGSA,A,3,27,22,18,14,21,03,06,24,19,,,,2.2,1.1,1.9*3B
$GPRMC,013252.000,A,3222.4678,N,11107.3545,W,35.32,98.71,241013,,,A*73
$GPGGA,013253.000,3222.4666,N,11107.3432,W,1,09,1.1,633.7,M,-27.6,M,,0000*6D
$GPGSA,A,3,27,22,18,14,21,03,06,24,19,,,,2.2,1.1,1.9*3B
$GPRMC,013253.000,A,3222.4666,N,11107.3432,W,35.37,98.57,241013,,,A*7D
$GPGGA,013254.000,3222.4653,N,11107.3320,W,1,09,1.1,634.2,M,-27.6,M,,0000*6A
$GPGSA,A,3,27,22,18,14,21,03,06,24,19,,,,2.2,1.1,1.9*3B
$GPGSV,3,1,11,14,70,225,23,22,63,001,24,18,44,059,20,21,39,134,26*73
$GPGSV,3,2,11,27,36,257,21,06,33,244,26,19,28,297,22,03,27,265,26*76
$GPGSV,3,3,11,24,22,056,30,31,05,180,18,11,02,317,*4F
$GPRMC,013254.000,A,3222.4653,N,11107.3320,W,34.96,98.29,241013,,,A*7B
$GPGGA,013255.000,3222.4639,N,11107.3208,W,1,09,1.1,634.6,M,-27.6,M,,0000*68
$GPGSA,A,3,27,22,18,14,21,03,06,24,19,,,,2.2,1.1,1.9*3B
$GPRMC,013255.000,A,3222.4639,N,11107.3208,W,35.15,98.92,241013,,,A*77
$GPGGA,013256.000,3222.4626,N,11107.3094,W,1,09,1.1,635.2,M,-27.6,M,,0000*67
$GPGSA,A,3,27,22,18,14,21,03,06,24,19,,,,2.2,1.1,1.9*3B
$GPRMC,013256.000,A,3222.4626,N,11107.3094,W,34.79,98.16,241013,,,A*7A
$GPGGA,013257.000,3222.4611,N,11107.2981,W,1,09,1.1,635.1,M,-27.6,M,,0000*6D
$GPGSA,A,3,27,22,18,14,21,03,06,24,19,,,,2.2,1.1,1.9*3B
$GPRMC,013257.000,A,3222.4611,N,11107.2981,W,35.01,98.54,241013,,,A*7B
$GPGGA,013258.000,3222.4597,N,11107.2869,W,1,09,1.1,634.0,M,-27.6,M,,0000*68
$GPGSA,A,3,27,22,18,14,21,03,06,24,19,,,,2.2,1.1,1.9*3B
$GPRMC,013258.000,A,3222.4597,N,11107.2869,W,35.03,98.42,241013,,,A*7B
$GPGGA,013259.000,3222.4585,N,11107.2754,W,1,09,1.1,633.6,M,-27.6,M,,0000*6A
$GPGSA,A,3,27,22,18,14,21,03,06,24,19,,,,2.2,1.1,1.9*3B
$GPGSV,3,1,11,14,70,225,23,22,63,001,24,18,44,059,25,21,39,134,25*75
$GPGSV,3,2,11,27,36,257,22,06,33,244,25,19,28,297,21,03,27,265,27*74
$GPGSV,3,3,11,24,22,056,30,31,05,180,19,11,02,317,*4E
$GPRMC,013259.000,A,3222.4585,N,11107.2754,W,35.40,97.48,241013,,,A*7A
$GPGGA,013300.000,3222.4575,N,11107.2639,W,1,09,1.1,633.1,M,-27.6,M,,0000*65
$GPGSA,A,3,27,22,18,14,21,03,06,24,19,,,,2.2,1.1,1.9*3B
$GPRMC,013300.000,A,3222.4575,N,11107.2639,W,35.45,96.59,241013,,,A*76
$GPGGA,013301.000,3222.4564,N,11107.2523,W,1,09,1.1,633.1,M,-27.6,M,,0000*6C
$GPGSA,A,3,27,22,18,14,21,03,06,24,19,,,,2.2,1.1,1.9*3B
$GPRMC,013301.000,A,3222.4564,N,11107.2523,W,35.76,94.79,241013,,,A*7F
$GPGGA,013302.000,3222.4556,N,11107.2405,W,1,09,1.1,633.2,M,-27.6,M,,0000*68
$GPGSA,A,3,27,22,18,14,21,03,06,24,19,,,,2.2,1.1,1.9*3B
$GPRMC,013302.000,A,3222.4556,N,11107.2405,W,36.49,94.29,241013,,,A*72
$GPGGA,013303.000,3222.4550,N,11107.2285,W,1,09,1.1,633.7,M,-27.6,M,,0000*64
$GPGSA,A,3,27,22,18,14,21,03,06,24,19,,,,2.2,1.1,1.9*3B
$GPRMC,013303.000,A,3222.4550,N,11107.2285,W,37.14,94.00,241013,,,A*79
$GPGGA,013304.000,3222.4548,N,11107.2163,W,1,09,1.1,634.3,M,-27.6,M,,0000*62
$GPGSA,A,3,27,22,18,14,21,03,06,24,19,,,,2.2,1.1,1.9*3B
$GPGSV,3,1,11,14,70,225,24,22,63,001,31,18,44,059,31,21,39,134,20*76
$GPGSV,3,2,11,27,36,257,22,06,33,244,17,19,28,297,21,03,27,265,27*75
$GPGSV,3,3,11,24,22,056,31,31,05,180,19,11,02,317,*4F
$GPRMC,013304.000,A,3222.4548,N,11107.2163,W,37.14,90.67,241013,,,A*79
$GPGGA,013305.000,3222.4549,N,11107.2041,W,1,09,1.1,635.0,M,-27.6,M,,0000*61
$GPGSA,A,3,27,22,18,14,21,03,06,24,19,,,,2.2,1.1,1.9*3B
$GPRMC,013305.000,A,3222.4549,N,11107.2041,W,36.93,88.69,241013,,,A*71
$GPGGA,013306.000,3222.4554,N,11107.1919,W,1,09,1.1,635.9,M,-27.6,M,,0000*60
$GPGSA,A,3,27,22,18,14,21,03,06,24,19,,,,2.2,1.1,1.9*3B
$GPRMC,013306.000,A,3222.4554,N,11107.1919,W,36.84,87.74,241013,,,A*7C
$GPGGA,013307.000,3222.4562,N,11107.1799,W,1,09,1.1,636.0,M,-27.6,M,,0000*68
$GPGSA,A,3,27,22,18,14,21,03,06,24,19,,,,2.2,1.1,1.9*3B
$GPRMC,013307.000,A,3222.4562,N,11107.1799,W,36.83,86.37,241013,,,A*7F
$GPGGA,013308.000,3222.4573,N,11107.1679,W,1,09,1.1,635.5,M,-27.6,M,,0000*6E
$GPGSA,A,3,27,22,18,14,21,03,06,24,19,,,,2.2,1.1,1.9*3B
$GPRMC,013308.000,A,3222.4573,N,11107.1679,W,36.41,83.75,241013,,,A*72
$GPGGA,013309.000,3222.4586,N,11107.1561,W,1,09,1.1,635.1,M,-27.6,M,,0000*6B
$GPGSA,A,3,27,22,18,14,21,03,06,24,19,,,,2.2,1.1,1.9*3B
$GPGSV,3,1,12,14,70,225,19,22,63,001,31,18,44,059,26,21,39,134,20*7D
$GPGSV,3,2,12,27,36,257,31,06,33,244,18,19,28,297,21,03,27,265,26*7A
$GPGSV,3,3,12,24,22,056,31,31,05,180,23,11,02,317,,46,47,156,23*77
$GPRMC,013309.000,A,3222.4586,N,11107.1561,W,36.20,82.31,241013,,,A*75
$GPGGA,013310.000,3222.4602,N,11107.1443,W,1,09,1.1,634.8,M,-27.6,M,,0000*65
$GPGSA,A,3,27,22,18,14,21,03,06,24,19,,,,2.2,1.1,1.9*3B
$GPRMC,013310.000,A,3222.4602,N,11107.1443,W,36.42,80.59,241013,,,A*7B
$GPGGA,013311.000,3222.4621,N,11107.1328,W,1,09,1.1,634.7,M,-27.6,M,,0000*60
$GPGSA,A,3,27,22,18,14,21,03,06,24,19,,,,2.2,1.1,1.9*3B
$GPRMC,013311.000,A,3222.4621,N,11107.1328,W,35.98,78.69,241013,,,A*71
$GPGGA,013312.000,3222.4644,N,11107.1214,W,1,09,1.1,634.4,M,-27.6,M,,0000*6D
$GPGSA,A,3,27,22,18,14,21,03,06,24,19,,,,2.2,1.1,1.9*3B
$GPRMC,013312.000,A,3222.4644,N,11107.1214,W,35.74,76.85,241013,,,A*71
$GPGGA,013313.000,3222.4669,N,11107.1101,W,1,09,1.1,634.9,M,-27.6,M,,0000*69
$GPGSA,A,3,27,22,18,14,21,03,06,24,19,,,,2.2,1.1,1.9*3B
$GPRMC,013313.000,A,3222.4669,N,11107.1101,W,35.60,76.00,241013,,,A*70
$GPGGA,013314.000,3222.4699,N,11107.0988,W,1,09,1.1,635.6,M,-27.6,M,,0000*67
$GPGSA,A,3,27,22,18,14,21,03,06,24,19,,,,2.2,1.1,1.9*3B
$GPGSV,3,1,11,14,70,225,20,22,63,001,32,18,44,059,29,21,39,134,20*78
$GPGSV,3,2,11,27,36,257,31,06,33,244,25,19,28,297,29,03,27,265,26*7F
$GPGSV,3,3,11,24,22,056,20,31,05,180,13,11,02,317,*45
$GPRMC,013314.000,A,3222.4699,N,11107.0988,W,35.82,74.72,241013,,,A*7B
$GPGGA,013315.000,3222.4729,N,11107.0875,W,1,09,1.1,636.0,M,-27.6,M,,0000*6A
$GPGSA,A,3,27,22,18,14,21,03,06,24,19,,,,2.2,1.1,1.9*3B
$GPRMC,013315.000,A,3222.4729,N,11107.0875,W,36.61,74.24,241013,,,A*7E
$GPGGA,013316.000,3222.4761,N,11107.0761,W,1,09,1.1,635.1,M,-27.6,M,,0000*6D
$GPGSA,A,3,27,22,18,14,21,03,06,24,19,,,,2.2,1.1,1.9*3B
$GPRMC,013316.000,A,3222.4761,N,11107.0761,W,36.82,70.88,241013,,,A*74
$GPGGA,013317.000,3222.4800,N,11107.0647,W,1,09,1.1,634.9,M,-27.6,M,,0000*68
$GPGSA,A,3,27,22,18,14,21,03,06,24,19,,,,2.2,1.1,1.9*3B
$GPRMC,013317.000,A,3222.4800,N,11107.0647,W,37.35,67.54,241013,,,A*72
$GPGGA,013318.000,3222.4844,N,11107.0537,W,1,09,1.1,634.9,M,-27.6,M,,0000*63
$GPGSA,A,3,27,22,18,14,21,03,06,24,19,,,,2.2,1.1,1.9*3B
$GPRMC,013318.000,A,3222.4844,N,11107.0537,W,37.12,65.32,241013,,,A*7E
$GPGGA,013319.000,3222.4892,N,11107.0430,W,1,09,1.1,634.5,M,-27.6,M,,0000*63
$GPGSA,A,3,27,22,18,14,21,03,06,24,19,,,,2.2,1.1,1.9*3B
$GPGSV,3,1,11,14,70,225,21,22,63,001,35,18,44,059,29,21,39,134,25*7B
$GPGSV,3,2,11,27,36,257,24,06,33,244,26,19,28,297,24,03,27,265,20*73
$GPGSV,3,3,11,24,22,056,26,31,05,180,22,11,02,317,19*49
$GPRMC,013319.000,A,3222.4892,N,11107.0430,W,36.98,63.62,241013,,,A*72
$GPGGA,013320.000,3222.4939,N,11107.0320,W,1,09,1.1,634.2,M,-27.6,M,,0000*68
$GPGSA,A,3,27,22,18,14,21,03,06,24,19,,,,2.2,1.1,1.9*3B
$GPRMC,013320.000,A,3222.4939,N,11107.0320,W,37.94,62.48,241013,,,A*7A
$GPGGA,013321.000,3222.4993,N,11107.0209,W,1,09,1.1,634.6,M,-27.6,M,,0000*67
$GPGSA,A,3,27,22,18,14,21,03,06,24,19,,,,2.2,1.1,1.9*3B
$GPRMC,013321.000,A,3222.4993,N,11107.0209,W,39.39,59.13,241013,,,A*7E
$GPGGA,013322.000,3222.5051,N,11107.0094,W,1,09,1.1,634.5,M,-27.6,M,,0000*67
$GPGSA,A,3,27,22,18,14,21,03,06,24,19,,,,2.2,1.1,1.9*3B
$GPRMC,013322.000,A,3222.5051,N,11107.0094,W,40.91,60.13,241013,,,A*7B
$GPGGA,013323.000,3222.5111,N,11106.9977,W,1,09,1.1,634.8,M,-27.6,M,,0000*62
$GPGSA,A,3,27,22,18,14,21,03,06,24,19,,,,2.2,1.1,1.9*3B
$GPRMC,013323.000,A,3222.5111,N,11106.9977,W,41.55,59.79,241013,,,A*7C
$GPGGA,013324.000,3222.5171,N,11106.9857,W,1,09,1.1,635.1,M,-27.6,M,,0000*68
$GPGSA,A,3,27,22,18,14,21,03,06,24,19,,,,2.2,1.1,1.9*3B
$GPGSV,3,1,12,14,70,225,16,22,63,001,36,18,44,059,28,21,39,134,20*7B
$GPGSV,3,2,12,27,36,257,25,06,33,244,26,19,28,297,24,03,27,265,22*73
$GPGSV,3,3,12,24,22,056,21,31,05,180,19,11,02,317,19,48,45,216,29*76
$GPRMC,013324.000,A,3222.5171,N,11106.9857,W,42.84,60.39,241013,,,A*7F
$GPGGA,013325.000,3222.5231,N,11106.9731,W,1,09,1.1,635.2,M,-27.6,M,,0000*62
$GPGSA,A,3,27,22,18,14,21,03,06,24,19,,,,2.2,1.1,1.9*3B
$GPRMC,013325.000,A,3222.5231,N,11106.9731,W,43.83,60.62,241013,,,A*7E
$GPGGA,013326.000,3222.5293,N,11106.9604,W,1,09,1.1,634.9,M,-27.6,M,,0000*64
$GPGSA,A,3,27,22,18,14,21,03,06,24,19,,,,2.2,1.1,1.9*3B
$GPRMC,013326.000,A,3222.5293,N,11106.9604,W,44.45,61.18,241013,,,A*73
$GPGGA,013327.000,3222.5354,N,11106.9473,W,1,09,1.1,634.6,M,-27.6,M,,0000*62
$GPGSA,A,3,27,22,18,14,21,03,06,24,19,,,,2.2,1.1,1.9*3B
$GPRMC,013327.000,A,3222.5354,N,11106.9473,W,45.02,60.88,241013,,,A*70
$GPGGA,013328.000,3222.5415,N,11106.9341,W,1,09,1.1,634.4,M,-27.6,M,,0000*6B
$GPGSA,A,3,27,22,18,14,21,03,06,24,19,,,,2.2,1.1,1.9*3B
$GPRMC,013328.000,A,3222.5415,N,11106.9341,W,45.38,61.54,241013,,,A*72
$GPGGA,013329.000,3222.5473,N,11106.9207,W,1,09,1.1,634.8,M,-27.6,M,,0000*65
$GPGSA,A,3,27,22,18,14,21,03,06,24,19,,,,2.2,1.1,1.9*3B
$GPGSV,3,1,12,14,70,225,15,22,63,001,36,18,44,059,30,21,39,134,21*70
$GPGSV,3,2,12,27,36,257,25,06,33,244,26,19,28,297,23,03,27,265,24*72
$GPGSV,3,3,12,24,22,056,23,31,05,180,26,11,02,317,20,48,45,216,29*72
$GPRMC,013329.000,A,3222.5473,N,11106.9207,W,45.46,62.36,241013,,,A*7E
$GPGGA,013330.000,3222.5532,N,11106.9073,W,1,09,1.1,635.1,M,-27.6,M,,0000*60
$GPGSA,A,3,27,22,18,14,21,03,06,24,19,,,,2.2,1.1,1.9*3B
$GPRMC,013330.000,A,3222.5532,N,11106.9073,W,45.86,61.59,241013,,,A*75
$GPGGA,013331.000,3222.5594,N,11106.8941,W,1,09,1.1,635.4,M,-27.6,M,,0000*61
$GPGSA,A,3,27,22,18,14,21,03,06,24,19,,,,2.2,1.1,1.9*3B
$GPRMC,013331.000,A,3222.5594,N,11106.8941,W,46.03,61.35,241013,,,A*75
$GPGGA,013332.000,3222.5655,N,11106.8807,W,1,09,1.1,635.2,M,-27.6,M,,0000*69
$GPGSA,A,3,27,22,18,14,21,03,06,24,19,,,,2.2,1.1,1.9*3B
$GPRMC,013332.000,A,3222.5655,N,11106.8807,W,46.08,61.34,241013,,,A*71
$GPGGA,013333.000,3222.5718,N,11106.8676,W,1,09,1.1,635.3,M,-27.6,M,,0000*69
$GPGSA,A,3,27,22,18,14,21,03,06,24,19,,,,2.2,1.1,1.9*3B
$GPRMC,013333.000,A,3222.5718,N,11106.8676,W,45.88,61.18,241013,,,A*75
$GPGGA,013334.000,3222.5781,N,11106.8545,W,1,09,1.1,635.0,M,-27.6,M,,0000*6E
$GPGSA,A,3,27,22,18,14,21,03,06,24,19,,,,2.2,1.1,1.9*3B
$GPGSV,3,1,12,14,70,225,14,22,63,001,36,18,44,059,30,21,39,134,21*71
$GPGSV,3,2,12,27,36,257,25,06,33,244,26,19,28,297,19,03,27,265,25*7A
$GPGSV,3,3,12,24,22,056,25,31,05,180,26,11,02,317,19,48,45,216,29*7E
$GPRMC,013334.000,A,3222.5781,N,11106.8545,W,45.35,61.65,241013,,,A*7D
$GPGGA,013335.000,3222.5843,N,11106.8416,W,1,09,1.1,634.4,M,-27.6,M,,0000*6C
$GPGSA,A,3,27,22,18,14,21,03,06,24,19,,,,2.2,1.1,1.9*3B
$GPRMC,013335.000,A,3222.5843,N,11106.8416,W,44.95,62.13,241013,,,A*73
$GPGGA,013336.000,3222.5904,N,11106.8286,W,1,09,1.1,633.8,M,-27.6,M,,0000*69
$GPGSA,A,3,27,22,18,14,21,03,06,24,19,,,,2.2,1.1,1.9*3B
$GPRMC,013336.000,A,3222.5904,N,11106.8286,W,44.72,62.06,241013,,,A*70
$GPGGA,013337.000,3222.5962,N,11106.8156,W,1,09,1.1,633.1,M,-27.6,M,,0000*6F
$GPGSA,A,3,27,22,18,14,21,03,06,24,19,,,,2.2,1.1,1.9*3B
$GPRMC,013337.000,A,3222.5962,N,11106.8156,W,44.40,62.43,241013,,,A*7F
$GPGGA,013338.000,3222.6022,N,11106.8028,W,1,09,1.1,631.9,M,-27.6,M,,0000*6C
$GPGSA,A,3,27,22,18,14,21,03,06,24,19,,,,2.2,1.1,1.9*3B
$GPRMC,013338.000,A,3222.6022,N,11106.8028,W,44.08,61.43,241013,,,A*79
$GPGGA,013339.000,3222.6083,N,11106.7902,W,1,09,1.1,631.1,M,-27.6,M,,0000*60
$GPGSA,A,3,27,22,18,14,21,03,06,24,19,,,,2.2,1.1,1.9*3B
$GPGSV,3,1,12,14,70,225,14,22,63,001,36,18,44,059,31,21,39,134,21*70
$GPGSV,3,2,12,27,36,257,25,06,33,244,26,19,28,297,20,03,27,265,26*73
$GPGSV,3,3,12,24,22,056,26,31,05,180,26,11,02,317,19,48,45,216,29*7D
$GPRMC,013339.000,A,3222.6083,N,11106.7902,W,43.75,60.16,241013,,,A*71
$GPGGA,013340.000,3222.6141,N,11106.7778,W,1,09,1.1,630.7,M,-27.6,M,,0000*65
$GPGSA,A,3,27,22,18,14,21,03,06,24,19,,,,2.2,1.1,1.9*3B
$GPRMC,013340.000,A,3222.6141,N,11106.7778,W,43.06,60.03,241013,,,A*73
$GPGGA,013341.000,3222.6198,N,11106.7655,W,1,09,1.1,630.3,M,-27.6,M,,0000*6A
$GPGSA,A,3,27,22,18,14,21,03,06,24,19,,,,2.2,1.1,1.9*3B
$GPRMC,013341.000,A,3222.6198,N,11106.7655,W,42.86,61.66,241013,,,A*73
$GPGGA,013342.000,3222.6252,N,11106.7530,W,1,09,1.1,630.2,M,-27.6,M,,0000*6D
$GPGSA,A,3,27,22,18,14,21,03,06,24,19,,,,2.2,1.1,1.9*3B
$GPRMC,013342.000,A,3222.6252,N,11106.7530,W,42.76,61.84,241013,,,A*76
$GPGGA,013343.000,3222.6309,N,11106.7408,W,1,09,1.1,630.1,M,-27.6,M,,0000*6A
$GPGSA,A,3,27,22,18,14,21,03,06,24,19,,,,2.2,1.1,1.9*3B
$GPRMC,013343.000,A,3222.6309,N,11106.7408,W,42.60,60.78,241013,,,A*77
$GPGGA,013344.000,3222.6369,N,11106.7288,W,1,08,1.1,630.4,M,-27.6,M,,0000*61
$GPGSA,A,3,27,22,18,21,03,06,24,19,,,,,2.7,1.1,2.4*35
$GPGSV,3,1,12,14,70,225,,22,63,001,36,18,44,059,30,21,39,134,21*74
$GPGSV,3,2,12,27,36,257,25,06,33,244,26,19,28,297,22,03,27,265,26*71
$GPGSV,3,3,12,24,22,056,26,31,05,180,25,11,02,317,20,48,45,216,26*7B
$GPRMC,013344.000,A,3222.6369,N,11106.7288,W,42.10,60.40,241013,,,A*74
$GPGGA,013345.000,3222.6429,N,11106.7169,W,1,08,1.1,630.3,M,-27.6,M,,0000*68
$GPGSA,A,3,27,22,18,21,03,06,24,19,,,,,2.7,1.1,2.4*35
$GPRMC,013345.000,A,3222.6429,N,11106.7169,W,41.95,58.84,241013,,,A*77
$GPGGA,013346.000,3222.6490,N,11106.7054,W,1,08,1.1,630.2,M,-27.6,M,,0000*67
$GPGSA,A,3,27,22,18,21,03,06,24,19,,,,,2.7,1.1,2.4*35
$GPRMC,013346.000,A,3222.6490,N,11106.7054,W,41.51,57.85,241013,,,A*7F
$GPGGA,013347.000,3222.6549,N,11106.6940,W,1,07,1.8,630.2,M,-27.6,M,,0000*68
$GPGSA,A,3,27,22,18,03,06,24,19,,,,,,3.0,1.8,2.4*39
$GPRMC,013347.000,A,3222.6549,N,11106.6940,W,40.60,58.47,241013,,,A*74
$GPGGA,013348.000,3222.6605,N,11106.6826,W,1,08,1.1,630.1,M,-27.6,M,,0000*68
$GPGSA,A,3,27,22,18,21,03,06,24,19,,,,,2.7,1.1,2.4*35
$GPRMC,013348.000,A,3222.6605,N,11106.6826,W,39.66,60.63,241013,,,A*74
$GPGGA,013349.000,3222.6658,N,11106.6714,W,1,09,1.1,629.7,M,-27.6,M,,0000*60
$GPGSA,A,3,27,22,18,14,21,03,06,24,19,,,,2.2,1.1,1.9*3B
$GPGSV,3,1,12,14,70,225,16,22,63,001,37,18,44,059,25,21,39,134,15*71
$GPGSV,3,2,12,27,36,257,25,06,33,244,26,19,28,297,26,03,27,265,26*75
$GPGSV,3,3,12,24,22,056,18,31,05,180,24,11,02,317,21,48,45,216,22*72
$GPRMC,013349.000,A,3222.6658,N,11106.6714,W,38.84,60.83,241013,,,A*70
$GPGGA,013350.000,3222.6711,N,11106.6605,W,1,09,1.1,629.2,M,-27.6,M,,0000*60
$GPGSA,A,3,27,22,18,14,21,03,06,24,19,,,,2.2,1.1,1.9*3B
$GPRMC,013350.000,A,3222.6711,N,11106.6605,W,37.89,60.72,241013,,,A*79
$GPGGA,013351.000,3222.6764,N,11106.6499,W,1,09,1.1,628.8,M,-27.6,M,,0000*6F
$GPGSA,A,3,27,22,18,14,21,03,06,24,19,,,,2.2,1.1,1.9*3B
$GPRMC,013351.000,A,3222.6764,N,11106.6499,W,36.91,59.35,241013,,,A*7C
$GPGGA,013352.000,3222.6816,N,11106.6401,W,1,09,1.1,629.2,M,-27.6,M,,0000*6C
$GPGSA,A,3,27,22,18,14,21,03,06,24,19,,,,2.2,1.1,1.9*3B
$GPRMC,013352.000,A,3222.6816,N,11106.6401,W,35.07,57.32,241013,,,A*71
$GPGGA,013353.000,3222.6866,N,11106.6309,W,1,09,1.1,630.0,M,-27.6,M,,0000*6F
$GPGSA,A,3,27,22,18,14,21,03,06,24,19,,,,2.2,1.1,1.9*3B
$GPRMC,013353.000,A,3222.6866,N,11106.6309,W,32.87,55.98,241013,,,A*75
$GPGGA,013354.000,3222.6913,N,11106.6227,W,1,08,1.1,630.7,M,-27.6,M,,0000*60
$GPGSA,A,3,27,22,18,21,03,06,24,19,,,,,2.7,1.1,2.4*35
$GPGSV,3,1,11,14,70,225,,22,63,001,36,18,44,059,25,21,39,134,18*79
$GPGSV,3,2,11,27,36,257,25,06,33,244,25,19,28,297,27,03,27,265,26*74
$GPGSV,3,3,11,24,22,056,18,31,05,180,14,11,02,317,12*4A
$GPRMC,013354.000,A,3222.6913,N,11106.6227,W,29.16,57.28,241013,,,A*77
$GPGGA,013355.000,3222.6954,N,11106.6156,W,1,08,1.1,630.9,M,-27.6,M,,0000*69
$GPGSA,A,3,27,22,18,21,03,06,24,19,,,,,2.7,1.1,2.4*35
$GPRMC,013355.000,A,3222.6954,N,11106.6156,W,25.19,56.41,241013,,,A*7D
$GPGGA,013356.000,3222.6989,N,11106.6103,W,1,08,1.1,631.4,M,-27.6,M,,0000*66
$GPGSA,A,3,27,22,18,21,03,06,24,19,,,,,2.7,1.1,2.4*35
$GPRMC,013356.000,A,3222.6989,N,11106.6103,W,18.45,55.79,241013,,,A*71
$GPGGA,013357.000,3222.7011,N,11106.6068,W,1,08,1.1,631.9,M,-27.6,M,,0000*6F
$GPGSA,A,3,27,22,18,21,03,06,24,19,,,,,2.7,1.1,2.4*35
$GPRMC,013357.000,A,3222.7011,N,11106.6068,W,11.23,56.72,241013,,,A*74
$GPGGA,013358.000,3222.7018,N,11106.6051,W,1,08,1.1,633.6,M,-27.6,M,,0000*6E
$GPGSA,A,3,27,22,18,21,03,06,24,19,,,,,2.7,1.1,2.4*35
$GPRMC,013358.000,A,3222.7018,N,11106.6051,W,5.35,59.75,241013,,,A*42
$GPGGA,013359.000,3222.7021,N,11106.6044,W,1,09,1.1,634.7,M,-27.6,M,,0000*66
$GPGSA,A,3,27,22,18,14,21,03,06,24,19,,,,2.2,1.1,1.9*3B
$GPGSV,3,1,11,14,70,225,22,22,63,001,36,18,44,059,19,21,39,134,14*7A
$GPGSV,3,2,11,27,36,257,26,06,33,244,20,19,28,297,28,03,27,265,27*7C
$GPGSV,3,3,11,24,22,056,25,31,05,180,19,11,02,317,25*4D
$GPRMC,013359.000,A,3222.7021,N,11106.6044,W,3.20,46.26,241013,,,A*47
$GPGGA,013400.000,3222.7026,N,11106.6037,W,1,09,1.1,636.3,M,-27.6,M,,0000*68
$GPGSA,A,3,27,22,18,14,21,03,06,24,19,,,,2.2,1.1,1.9*3B
$GPRMC,013400.000,A,3222.7026,N,11106.6037,W,5.62,52.04,241013,,,A*4A
$GPGGA,013401.000,3222.7040,N,11106.6020,W,1,09,1.1,637.2,M,-27.6,M,,0000*6F
$GPGSA,A,3,27,22,18,14,21,03,06,24,19,,,,2.2,1.1,1.9*3B
$GPRMC,013401.000,A,3222.7040,N,11106.6020,W,9.65,62.18,241013,,,A*48
$GPGGA,013402.000,3222.7049,N,11106.5984,W,1,09,1.1,637.8,M,-27.6,M,,0000*6B
$GPGSA,A,3,27,22,18,14,21,03,06,24,19,,,,2.2,1.1,1.9*3B
$GPRMC,013402.000,A,3222.7049,N,11106.5984,W,13.74,85.32,241013,,,A*7C
$GPGGA,013403.000,3222.7040,N,11106.5934,W,1,09,1.1,638.2,M,-27.6,M,,0000*6D
$GPGSA,A,3,27,22,18,14,21,03,06,24,19,,,,2.2,1.1,1.9*3B
$GPRMC,013403.000,A,3222.7040,N,11106.5934,W,17.11,112.15,241013,,,A*42
$GPGGA,013404.000,3222.7004,N,11106.5880,W,1,09,1.1,638.5,M,-27.6,M,,0000*63
$GPGSA,A,3,27,22,18,14,21,03,06,24,19,,,,2.2,1.1,1.9*3B
$GPGSV,3,1,11,14,70,225,23,22,63,001,29,18,44,059,34,21,39,134,22*7F
$GPGSV,3,2,11,27,36,257,21,06,33,244,21,19,28,297,18,03,27,265,24*7A
$GPGSV,3,3,11,24,22,056,25,31,05,180,26,11,02,317,23*47
$GPRMC,013404.000,A,3222.7004,N,11106.5880,W,21.67,134.74,241013,,,A*4C
$GPGGA,013405.000,3222.6942,N,11106.5824,W,1,09,1.1,639.1,M,-27.6,M,,0000*63
$GPGSA,A,3,27,22,18,14,21,03,06,24,19,,,,2.2,1.1,1.9*3B
$GPRMC,013405.000,A,3222.6942,N,11106.5824,W,26.82,141.47,241013,,,A*47
$GPGGA,013406.000,3222.6864,N,11106.5759,W,1,09,1.1,640.3,M,-27.6,M,,0000*6C
$GPGSA,A,3,27,22,18,14,21,03,06,24,19,,,,2.2,1.1,1.9*3B
$GPRMC,013406.000,A,3222.6864,N,11106.5759,W,33.09,143.74,241013,,,A*41
$GPGGA,013407.000,3222.6773,N,11106.5686,W,1,09,1.1,641.9,M,-27.6,M,,0000*6C
$GPGSA,A,3,27,22,18,14,21,03,06,24,19,,,,2.2,1.1,1.9*3B
$GPRMC,013407.000,A,3222.6773,N,11106.5686,W,38.10,143.67,241013,,,A*4B
$GPGGA,013408.000,3222.6668,N,11106.5598,W,1,09,1.1,643.6,M,-27.6,M,,0000*69
$GPGSA,A,3,27,22,18,14,21,03,06,24,19,,,,2.2,1.1,1.9*3B
$GPRMC,013408.000,A,3222.6668,N,11106.5598,W,44.20,142.22,241013,,,A*4B
$GPGGA,013409.000,3222.6548,N,11106.5494,W,1,09,1.1,644.1,M,-27.6,M,,0000*64
$GPGSA,A,3,27,22,18,14,21,03,06,24,19,,,,2.2,1.1,1.9*3B
$GPGSV,3,1,11,14,70,225,25,22,63,001,27,18,44,059,30,21,39,134,26*77
$GPGSV,3,2,11,27,36,257,22,06,33,244,22,19,28,297,24,03,27,265,24*75
$GPGSV,3,3,11,24,22,056,29,31,05,180,22,11,02,317,24*48
$GPRMC,013409.000,A,3222.6548,N,11106.5494,W,49.92,141.95,241013,,,A*4D
$GPGGA,013410.000,3222.6419,N,11106.5376,W,1,09,1.1,643.1,M,-27.6,M,,0000*65
$GPGSA,A,3,27,22,18,14,21,03,06,24,19,,,,2.2,1.1,1.9*3B
$GPRMC,013410.000,A,3222.6419,N,11106.5376,W,55.75,140.27,241013,,,A*47
$GPGGA,013411.000,3222.6276,N,11106.5240,W,1,09,1.1,643.1,M,-27.6,M,,0000*6F
$GPGSA,A,3,27,22,18,14,21,03,06,24,19,,,,2.2,1.1,1.9*3B
$GPRMC,013411.000,A,3222.6276,N,11106.5240,W,61.02,138.91,241013,,,A*48
$GPGGA,013412.000,3222.6135,N,11106.5099,W,1,09,1.1,642.4,M,-27.6,M,,0000*6A
$GPGSA,A,3,27,22,18,14,21,03,06,24,19,,,,2.2,1.1,1.9*3B
$GPRMC,013412.000,A,3222.6135,N,11106.5099,W,66.21,138.95,241013,,,A*4B
$GPGGA,013413.000,3222.5985,N,11106.4947,W,1,09,1.1,641.8,M,-27.6,M,,0000*6F
$GPGSA,A,3,27,22,18,14,21,03,06,24,19,,,,2.2,1.1,1.9*3B
$GPRMC,013413.000,A,3222.5985,N,11106.4947,W,69.18,138.57,241013,,,A*4A
$GPGGA,013414.000,3222.5830,N,11106.4790,W,1,09,1.1,641.4,M,-27.6,M,,0000*6F
$GPGSA,A,3,27,22,18,14,21,03,06,24,19,,,,2.2,1.1,1.9*3B
$GPGSV,3,1,11,14,70,225,25,22,63,001,27,18,44,059,32,21,39,134,18*78
$GPGSV,3,2,11,27,36,257,22,06,33,244,22,19,28,297,16,03,27,265,28*78
$GPGSV,3,3,11,24,22,056,29,31,05,180,24,11,02,317,29*43
$GPRMC,013414.000,A,3222.5830,N,11106.4790,W,72.31,138.91,241013,,,A*4D
$GPGGA,013415.000,3222.5666,N,11106.4624,W,1,09,1.1,641.4,M,-27.6,M,,0000*6D
$GPGSA,A,3,27,22,18,14,21,03,06,24,19,,,,2.2,1.1,1.9*3B
$GPRMC,013415.000,A,3222.5666,N,11106.4624,W,76.47,138.90,241013,,,A*4B
$GPGGA,013416.000,3222.5503,N,11106.4454,W,1,09,1.1,641.9,M,-27.6,M,,0000*66
$GPGSA,A,3,27,22,18,14,21,03,06,24,19,,,,2.2,1.1,1.9*3B
$GPRMC,013416.000,A,3222.5503,N,11106.4454,W,76.38,138.66,241013,,,A*4C
$GPGGA,013417.000,3222.5338,N,11106.4287,W,1,09,1.1,642.0,M,-27.6,M,,0000*6B
$GPGSA,A,3,27,22,18,14,21,03,06,24,19,,,,2.2,1.1,1.9*3B
$GPRMC,013417.000,A,3222.5338,N,11106.4287,W,76.00,139.28,241013,,,A*4B
$GPGGA,013418.000,3222.5178,N,11106.4126,W,1,09,1.1,641.7,M,-27.6,M,,0000*6E
$GPGSA,A,3,27,22,18,14,21,03,06,24,19,,,,2.2,1.1,1.9*3B
$GPRMC,013418.000,A,3222.5178,N,11106.4126,W,72.07,139.38,241013,,,A*48
$GPGGA,013419.000,3222.5027,N,11106.3974,W,1,09,1.1,641.8,M,-27.6,M,,0000*63
$GPGSA,A,3,27,22,18,14,21,03,06,24,19,,,,2.2,1.1,1.9*3B
$GPGSV,3,1,11,14,70,225,25,22,63,001,27,18,44,059,31,21,39,134,18*7B
$GPGSV,3,2,11,27,36,257,22,06,33,244,22,19,28,297,15,03,27,265,28*7B
$GPGSV,3,3,11,24,22,056,30,31,05,180,23,11,02,317,27*42
$GPRMC,013419.000,A,3222.5027,N,11106.3974,W,68.47,139.32,241013,,,A*4F
$GPGGA,013420.000,3222.4888,N,11106.3830,W,1,08,1.2,641.9,M,-27.6,M,,0000*67
$GPGSA,A,3,27,22,18,14,21,03,06,24,,,,,2.3,1.2,1.9*31
$GPRMC,013420.000,A,3222.4888,N,11106.3830,W,65.90,139.72,241013,,,A*4B
$GPGGA,013421.000,3222.4750,N,11106.3692,W,1,09,1.1,642.1,M,-27.6,M,,0000*63
$GPGSA,A,3,27,22,18,14,21,03,06,24,19,,,,2.2,1.1,1.9*3B
$GPRMC,013421.000,A,3222.4750,N,11106.3692,W,63.51,139.68,241013,,,A*46
$GPGGA,013422.000,3222.4612,N,11106.3557,W,1,09,1.1,642.1,M,-27.6,M,,0000*6D
$GPGSA,A,3,27,22,18,14,21,03,06,24,19,,,,2.2,1.1,1.9*3B
$GPRMC,013422.000,A,3222.4612,N,11106.3557,W,62.51,140.31,241013,,,A*4B
$GPGGA,013423.000,3222.4482,N,11106.3431,W,1,09,1.1,641.2,M,-27.6,M,,0000*66
$GPGSA,A,3,27,22,18,14,21,03,06,24,19,,,,2.2,1.1,1.9*3B
$GPRMC,013423.000,A,3222.4482,N,11106.3431,W,60.97,140.95,241013,,,A*46
$GPGGA,013424.000,3222.4353,N,11106.3309,W,1,09,1.1,640.7,M,-27.6,M,,0000*62
$GPGSA,A,3,27,22,18,14,21,03,06,24,19,,,,2.2,1.1,1.9*3B
$GPGSV,3,1,11,14,70,225,26,22,63,001,27,18,44,059,31,21,39,134,15*75
$GPGSV,3,2,11,27,36,257,22,06,33,244,22,19,28,297,25,03,27,265,24*74
$GPGSV,3,3,11,24,22,056,29,31,05,180,12,11,02,317,26*49
$GPRMC,013424.000,A,3222.4353,N,11106.3309,W,59.71,141.45,241013,,,A*48
$GPGGA,013425.000,3222.4227,N,11106.3188,W,1,09,1.1,640.5,M,-27.6,M,,0000*68
$GPGSA,A,3,27,22,18,14,21,03,06,24,19,,,,2.2,1.1,1.9*3B
$GPRMC,013425.000,A,3222.4227,N,11106.3188,W,58.22,140.77,241013,,,A*47
$GPGGA,013426.000,3222.4100,N,11106.3068,W,1,09,1.1,640.1,M,-27.6,M,,0000*66
$GPGSA,A,3,27,22,18,14,21,03,06,24,19,,,,2.2,1.1,1.9*3B
$GPRMC,013426.000,A,3222.4100,N,11106.3068,W,57.83,140.67,241013,,,A*48
$GPGGA,013427.000,3222.3976,N,11106.2948,W,1,09,1.1,640.3,M,-27.6,M,,0000*61
$GPGSA,A,3,27,22,18,14,21,03,06,24,19,,,,2.2,1.1,1.9*3B
$GPRMC,013427.000,A,3222.3976,N,11106.2948,W,57.76,140.64,241013,,,A*44
$GPGGA,013428.000,3222.3851,N,11106.2826,W,1,09,1.1,640.1,M,-27.6,M,,0000*61
$GPGSA,A,3,27,22,18,14,21,03,06,24,19,,,,2.2,1.1,1.9*3B
$GPRMC,013428.000,A,3222.3851,N,11106.2826,W,57.20,140.23,241013,,,A*46
$GPGGA,013429.000,3222.3733,N,11106.2708,W,1,09,1.1,640.2,M,-27.6,M,,0000*6B
$GPGSA,A,3,27,22,18,14,21,03,06,24,19,,,,2.2,1.1,1.9*3B
$GPGSV,3,1,11,14,70,225,26,22,63,001,26,18,44,059,31,21,39,134,14*75
$GPGSV,3,2,11,27,36,257,22,06,33,244,22,19,28,297,25,03,27,265,25*75
$GPGSV,3,3,11,24,22,056,29,31,05,180,12,11,02,317,26*49
$GPRMC,013429.000,A,3222.3733,N,11106.2708,W,56.03,140.32,241013,,,A*4F
$GPGGA,013430.000,3222.3622,N,11106.2593,W,1,09,1.1,640.6,M,-27.6,M,,0000*66
$GPGSA,A,3,27,22,18,14,21,03,06,24,19,,,,2.2,1.1,1.9*3B
$GPRMC,013430.000,A,3222.3622,N,11106.2593,W,54.01,138.90,241013,,,A*41
$GPGGA,013431.000,3222.3509,N,11106.2474,W,1,09,1.1,640.6,M,-27.6,M,,0000*65
$GPGSA,A,3,27,22,18,14,21,03,06,24,19,,,,2.2,1.1,1.9*3B
$GPRMC,013431.000,A,3222.3509,N,11106.2474,W,55.10,137.81,241013,,,A*4C
$GPGGA,013432.000,3222.3394,N,11106.2349,W,1,09,1.1,640.5,M,-27.6,M,,0000*6E
$GPGSA,A,3,27,22,18,14,21,03,06,24,19,,,,2.2,1.1,1.9*3B
$GPRMC,013432.000,A,3222.3394,N,11106.2349,W,57.05,137.42,241013,,,A*4D
$GPGGA,013433.000,3222.3273,N,11106.2221,W,1,08,1.2,640.4,M,-27.6,M,,0000*6B
$GPGSA,A,3,27,22,18,14,21,03,06,24,,,,,2.3,1.2,1.9*31
$GPRMC,013433.000,A,3222.3273,N,11106.2221,W,59.35,138.70,241013,,,A*48
$GPGGA,013434.000,3222.3144,N,11106.2090,W,1,08,1.2,640.4,M,-27.6,M,,0000*63
$GPGSA,A,3,27,22,18,14,21,03,06,24,,,,,2.3,1.2,1.9*31
$GPGSV,3,1,11,14,70,225,27,22,63,001,28,18,44,059,31,21,39,134,17*79
$GPGSV,3,2,11,27,36,257,16,06,33,244,19,19,28,297,,03,27,265,26*7E
$GPGSV,3,3,11,24,22,056,29,31,05,180,19,11,02,317,26*42
$GPRMC,013434.000,A,3222.3144,N,11106.2090,W,61.35,139.46,241013,,,A*4F
$GPGGA,013435.000,3222.3013,N,11106.1957,W,1,09,1.1,640.6,M,-27.6,M,,0000*60
$GPGSA,A,3,27,22,18,14,21,03,06,24,19,,,,2.2,1.1,1.9*3B
$GPRMC,013435.000,A,3222.3013,N,11106.1957,W,63.00,139.57,241013,,,A*48
$GPGGA,013436.000,3222.2879,N,11106.1822,W,1,09,1.1,640.8,M,-27.6,M,,0000*6B
$GPGSA,A,3,27,22,18,14,21,03,06,24,19,,,,2.2,1.1,1.9*3B
$GPRMC,013436.000,A,3222.2879,N,11106.1822,W,62.81,139.22,241013,,,A*47
$GPGGA,013437.000,3222.2749,N,11106.1688,W,1,09,1.1,640.8,M,-27.6,M,,0000*68
$GPGSA,A,3,27,22,18,14,21,03,06,24,19,,,,2.2,1.1,1.9*3B
$GPRMC,013437.000,A,3222.2749,N,11106.1688,W,62.48,138.76,241013,,,A*41
$GPGGA,013438.000,3222.2618,N,11106.1553,W,1,09,1.1,641.0,M,-27.6,M,,0000*6E
$GPGSA,A,3,27,22,18,14,21,03,06,24,19,,,,2.2,1.1,1.9*3B
$GPRMC,013438.000,A,3222.2618,N,11106.1553,W,63.44,138.60,241013,,,A*44
$GPGGA,013439.000,3222.2486,N,11106.1416,W,1,09,1.1,641.1,M,-27.6,M,,0000*6B
$GPGSA,A,3,27,22,18,14,21,03,06,24,19,,,,2.2,1.1,1.9*3B
$GPGSV,3,1,11,14,70,225,27,22,63,001,27,18,44,059,31,21,39,134,19*78
$GPGSV,3,2,11,27,36,257,14,06,33,244,20,19,28,297,22,03,27,265,26*76
$GPGSV,3,3,11,24,22,056,29,31,05,180,23,11,02,317,26*4B
$GPRMC,013439.000,A,3222.2486,N,11106.1416,W,64.33,138.77,241013,,,A*41
$GPGGA,013440.000,3222.2353,N,11106.1277,W,1,09,1.1,641.4,M,-27.6,M,,0000*6E
$GPGSA,A,3,27,22,18,14,21,03,06,24,19,,,,2.2,1.1,1.9*3B
$GPRMC,013440.000,A,3222.2353,N,11106.1277,W,64.19,138.86,241013,,,A*47
$GPGGA,013441.000,3222.2218,N,11106.1140,W,1,09,1.1,641.6,M,-27.6,M,,0000*64
$GPGSA,A,3,27,22,18,14,21,03,06,24,19,,,,2.2,1.1,1.9*3B
$GPRMC,013441.000,A,3222.2218,N,11106.1140,W,62.81,138.77,241013,,,A*46
$GPGGA,013442.000,3222.2086,N,11106.1004,W,1,09,1.1,641.6,M,-27.6,M,,0000*63
$GPGSA,A,3,27,22,18,14,21,03,06,24,19,,,,2.2,1.1,1.9*3B
$GPRMC,013442.000,A,3222.2086,N,11106.1004,W,62.07,138.87,241013,,,A*40
$GPGGA,013443.000,3222.1954,N,11106.0870,W,1,09,1.1,641.7,M,-27.6,M,,0000*6C
$GPGSA,A,3,27,22,18,14,21,03,06,24,19,,,,2.2,1.1,1.9*3B
$GPRMC,013443.000,A,3222.1954,N,11106.0870,W,61.73,138.93,241013,,,A*4B
$GPGGA,013444.000,3222.1822,N,11106.0736,W,1,09,1.1,641.7,M,-27.6,M,,0000*66
$GPGSA,A,3,27,22,18,14,21,03,06,24,19,,,,2.2,1.1,1.9*3B
$GPGSV,3,1,11,14,70,225,26,22,63,001,27,18,44,059,31,21,39,134,19*79
$GPGSV,3,2,11,27,36,257,19,06,33,244,20,19,28,297,18,03,27,265,27*73
$GPGSV,3,3,11,24,22,056,29,31,05,180,26,11,02,317,26*4E
$GPRMC,013444.000,A,3222.1822,N,11106.0736,W,62.02,139.28,241013,,,A*45
$GPGGA,013445.000,3222.1693,N,11106.0604,W,1,09,1.1,641.8,M,-27.6,M,,0000*6C
$GPGSA,A,3,27,22,18,14,21,03,06,24,19,,,,2.2,1.1,1.9*3B
$GPRMC,013445.000,A,3222.1693,N,11106.0604,W,60.72,138.62,241013,,,A*4A
$GPGGA,013446.000,3222.1568,N,11106.0474,W,1,09,1.1,642.0,M,-27.6,M,,0000*66
$GPGSA,A,3,27,22,18,14,21,03,06,24,19,,,,2.2,1.1,1.9*3B
$GPRMC,013446.000,A,3222.1568,N,11106.0474,W,60.24,138.54,241013,,,A*4D
$GPGGA,013447.000,3222.1440,N,11106.0343,W,1,09,1.1,642.1,M,-27.6,M,,0000*6E
$GPGSA,A,3,27,22,18,14,21,03,06,24,19,,,,2.2,1.1,1.9*3B
$GPRMC,013447.000,A,3222.1440,N,11106.0343,W,61.97,139.23,241013,,,A*4C
$GPGGA,013448.000,3222.1309,N,11106.0211,W,1,09,1.1,642.4,M,-27.6,M,,0000*68
$GPGSA,A,3,27,22,18,14,21,03,06,24,19,,,,2.2,1.1,1.9*3B
$GPRMC,013448.000,A,3222.1309,N,11106.0211,W,62.61,139.64,241013,,,A*46
$GPGGA,013449.000,3222.1170,N,11106.0075,W,1,09,1.1,642.8,M,-27.6,M,,0000*69
$GPGSA,A,3,27,22,18,14,21,03,06,24,19,,,,2.2,1.1,1.9*3B
$GPGSV,3,1,11,14,70,225,26,22,63,001,27,18,44,059,31,21,39,134,18*78
$GPGSV,3,2,11,27,36,257,18,06,33,244,21,19,28,297,22,03,27,265,27*7A
$GPGSV,3,3,11,24,22,056,29,31,05,180,20,11,02,317,27*49
$GPRMC,013449.000,A,3222.1170,N,11106.0075,W,65.41,140.53,241013,,,A*44
$GPGGA,013450.000,3222.1026,N,11105.9937,W,1,09,1.1,642.8,M,-27.6,M,,0000*66
$GPGSA,A,3,27,22,18,14,21,03,06,24,19,,,,2.2,1.1,1.9*3B
$GPRMC,013450.000,A,3222.1026,N,11105.9937,W,67.48,140.47,241013,,,A*45
$GPGGA,013451.000,3222.0880,N,11105.9794,W,1,09,1.1,643.1,M,-27.6,M,,0000*6D
$GPGSA,A,3,27,22,18,14,21,03,06,24,19,,,,2.2,1.1,1.9*3B
$GPRMC,013451.000,A,3222.0880,N,11105.9794,W,69.04,139.89,241013,,,A*4C
$GPGGA,013452.000,3222.0734,N,11105.9648,W,1,09,1.1,643.1,M,-27.6,M,,0000*6E
$GPGSA,A,3,27,22,18,14,21,03,06,24,19,,,,2.2,1.1,1.9*3B
$GPRMC,013452.000,A,3222.0734,N,11105.9648,W,68.65,139.21,241013,,,A*4B
$GPGGA,013453.000,3222.0587,N,11105.9499,W,1,09,1.1,643.0,M,-27.6,M,,0000*6A
$GPGSA,A,3,27,22,18,14,21,03,06,24,19,,,,2.2,1.1,1.9*3B
$GPRMC,013453.000,A,3222.0587,N,11105.9499,W,69.49,139.04,241013,,,A*46
$GPGGA,013454.000,3222.0438,N,11105.9348,W,1,09,1.1,642.9,M,-27.6,M,,0000*6B
$GPGSA,A,3,27,22,18,14,21,03,06,24,19,,,,2.2,1.1,1.9*3B
$GPGSV,3,1,11,14,70,225,26,22,63,001,28,18,44,059,31,21,39,134,18*77
$GPGSV,3,2,11,27,36,257,18,06,33,244,23,19,28,297,16,03,27,265,28*70
$GPGSV,3,3,11,24,22,056,29,31,05,180,24,11,02,317,26*4C
$GPRMC,013454.000,A,3222.0438,N,11105.9348,W,70.20,138.82,241013,,,A*47
$GPGGA,013455.000,3222.0288,N,11105.9196,W,1,09,1.1,642.7,M,-27.6,M,,0000*68
$GPGSA,A,3,27,22,18,14,21,03,06,24,19,,,,2.2,1.1,1.9*3B
$GPRMC,013455.000,A,3222.0288,N,11105.9196,W,70.99,138.87,241013,,,A*4D
$GPGGA,013456.000,3222.0140,N,11105.9042,W,1,09,1.1,643.0,M,-27.6,M,,0000*62
$GPGSA,A,3,27,22,18,14,21,03,06,24,19,,,,2.2,1.1,1.9*3B
$GPRMC,013456.000,A,3222.0140,N,11105.9042,W,71.57,139.15,241013,,,A*48
$GPGGA,013457.000,3221.9993,N,11105.8891,W,1,09,1.1,643.2,M,-27.6,M,,0000*6A
$GPGSA,A,3,27,22,18,14,21,03,06,24,19,,,,2.2,1.1,1.9*3B
$GPRMC,013457.000,A,3221.9993,N,11105.8891,W,70.40,139.00,241013,,,A*41
$GPGGA,013458.000,3221.9848,N,11105.8741,W,1,09,1.1,643.6,M,-27.6,M,,0000*64
$GPGSA,A,3,27,22,18,14,21,03,06,24,19,,,,2.2,1.1,1.9*3B
$GPRMC,013458.000,A,3221.9848,N,11105.8741,W,70.08,138.96,241013,,,A*49
$GPGGA,013459.000,3221.9703,N,11105.8591,W,1,09,1.1,643.8,M,-27.6,M,,0000*64
$GPGSA,A,3,27,22,18,14,21,03,06,24,19,,,,2.2,1.1,1.9*3B
$GPGSV,3,1,11,14,70,225,26,22,63,001,28,18,44,059,31,21,39,134,18*77
$GPGSV,3,2,11,27,36,257,20,06,33,244,23,19,28,297,20,03,27,265,28*7E
$GPGSV,3,3,11,24,22,056,30,31,05,180,25,11,02,317,27*44
$GPRMC,013459.000,A,3221.9703,N,11105.8591,W,69.56,139.21,241013,,,A*49
$GPGGA,013500.000,3221.9557,N,11105.8443,W,1,09,1.1,643.7,M,-27.6,M,,0000*6B
$GPGSA,A,3,27,22,18,14,21,03,06,24,19,,,,2.2,1.1,1.9*3B
$GPRMC,013500.000,A,3221.9557,N,11105.8443,W,69.73,139.47,241013,,,A*4E
$GPGGA,013501.000,3221.9411,N,11105.8293,W,1,09,1.1,644.0,M,-27.6,M,,0000*62
$GPGSA,A,3,27,22,18,14,21,03,06,24,19,,,,2.2,1.1,1.9*3B
$GPRMC,013501.000,A,3221.9411,N,11105.8293,W,68.90,139.20,241013,,,A*4A
$GPGGA,013502.000,3221.9268,N,11105.8146,W,1,09,1.1,644.1,M,-27.6,M,,0000*63
$GPGSA,A,3,27,22,18,14,21,03,06,24,19,,,,2.2,1.1,1.9*3B
$GPRMC,013502.000,A,3221.9268,N,11105.8146,W,68.17,138.77,241013,,,A*46
$GPGGA,013503.000,3221.9128,N,11105.8000,W,1,09,1.1,644.8,M,-27.6,M,,0000*6F
$GPGSA,A,3,27,22,18,14,21,03,06,24,19,,,,2.2,1.1,1.9*3B
$GPRMC,013503.000,A,3221.9128,N,11105.8000,W,68.01,138.88,241013,,,A*44
$GPGGA,013504.000,3221.8989,N,11105.7855,W,1,09,1.1,645.1,M,-27.6,M,,0000*65
$GPGSA,A,3,27,22,18,14,21,03,06,24,19,,,,2.2,1.1,1.9*3B
$GPGSV,3,1,11,14,71,228,25,22,63,003,28,18,43,060,30,21,38,135,19*77
$GPGSV,3,2,11,27,36,255,21,06,32,242,24,19,28,296,21,03,27,264,28*7C
$GPGSV,3,3,11,24,22,055,30,31,06,180,25,11,03,317,27*45
$GPRMC,013504.000,A,3221.8989,N,11105.7855,W,67.62,139.20,241013,,,A*4F
$GPGGA,013505.000,3221.8852,N,11105.7712,W,1,09,1.1,645.8,M,-27.6,M,,0000*66
$GPGSA,A,3,27,22,18,14,21,03,06,24,19,,,,2.2,1.1,1.9*3B
$GPRMC,013505.000,A,3221.8852,N,11105.7712,W,66.46,138.85,241013,,,A*4C
$GPGGA,013506.000,3221.8716,N,11105.7569,W,1,09,1.1,646.4,M,-27.6,M,,0000*6B
$GPGSA,A,3,27,22,18,14,21,03,06,24,19,,,,2.2,1.1,1.9*3B
$GPRMC,013506.000,A,3221.8716,N,11105.7569,W,66.18,138.50,241013,,,A*4D
$GPGGA,013507.000,3221.8578,N,11105.7427,W,1,09,1.1,646.1,M,-27.6,M,,0000*6E
$GPGSA,A,3,27,22,18,14,21,03,06,24,19,,,,2.2,1.1,1.9*3B
$GPRMC,013507.000,A,3221.8578,N,11105.7427,W,66.49,138.81,241013,,,A*45
$GPGGA,013508.000,3221.8442,N,11105.7286,W,1,09,1.1,645.8,M,-27.6,M,,0000*6E
$GPGSA,A,3,27,22,18,14,21,03,06,24,19,,,,2.2,1.1,1.9*3B
$GPRMC,013508.000,A,3221.8442,N,11105.7286,W,65.74,138.80,241013,,,A*43
$GPGGA,013509.000,3221.8303,N,11105.7146,W,1,09,1.1,645.3,M,-27.6,M,,0000*69
$GPGSA,A,3,27,22,18,14,21,03,06,24,19,,,,2.2,1.1,1.9*3B
$GPGSV,3,1,11,14,71,228,25,22,63,003,28,18,43,060,30,21,38,135,19*77
$GPGSV,3,2,11,27,36,255,21,06,32,242,23,19,28,296,20,03,27,264,27*75
$GPGSV,3,3,11,24,22,055,30,31,06,180,26,11,03,317,25*44
$GPRMC,013509.000,A,3221.8303,N,11105.7146,W,64.98,138.82,241013,,,A*4E
$GPGGA,013510.000,3221.8165,N,11105.7005,W,1,09,1.1,645.4,M,-27.6,M,,0000*62
$GPGSA,A,3,27,22,18,14,21,03,06,24,19,,,,2.2,1.1,1.9*3B
$GPRMC,013510.000,A,3221.8165,N,11105.7005,W,64.49,138.48,241013,,,A*48
$GPGGA,013511.000,3221.8029,N,11105.6865,W,1,09,1.1,645.7,M,-27.6,M,,0000*66
$GPGSA,A,3,27,22,18,14,21,03,06,24,19,,,,2.2,1.1,1.9*3B
$GPRMC,013511.000,A,3221.8029,N,11105.6865,W,63.82,138.79,241013,,,A*4D
$GPGGA,013512.000,3221.7894,N,11105.6727,W,1,09,1.1,645.9,M,-27.6,M,,0000*63
$GPGSA,A,3,27,22,18,14,21,03,06,24,19,,,,2.2,1.1,1.9*3B
$GPRMC,013512.000,A,3221.7894,N,11105.6727,W,64.15,139.23,241013,,,A*41
$GPGGA,013513.000,3221.7756,N,11105.6590,W,1,09,1.1,646.0,M,-27.6,M,,0000*67
$GPGSA,A,3,27,22,18,14,21,03,06,24,19,,,,2.2,1.1,1.9*3B
$GPRMC,013513.000,A,3221.7756,N,11105.6590,W,64.69,140.43,241013,,,A*4C
$GPGGA,013514.000,3221.7614,N,11105.6456,W,1,09,1.1,646.6,M,-27.6,M,,0000*6A
$GPGSA,A,3,27,22,18,14,21,03,06,24,19,,,,2.2,1.1,1.9*3B
$GPGSV,3,1,11,14,71,228,25,22,63,003,28,18,43,060,30,21,38,135,18*76
$GPGSV,3,2,11,27,36,255,24,06,32,242,19,19,28,296,20,03,27,264,25*7B
$GPGSV,3,3,11,24,22,055,29,31,06,180,13,11,03,317,26*49
$GPRMC,013514.000,A,3221.7614,N,11105.6456,W,64.53,141.42,241013,,,A*4E
$GPGGA,013515.000,3221.7474,N,11105.6329,W,1,09,1.1,646.5,M,-27.6,M,,0000*63
$GPGSA,A,3,27,22,18,14,21,03,06,24,19,,,,2.2,1.1,1.9*3B
$GPRMC,013515.000,A,3221.7474,N,11105.6329,W,63.43,142.96,241013,,,A*48
$GPGGA,013516.000,3221.7335,N,11105.6205,W,1,09,1.1,646.2,M,-27.6,M,,0000*6A
$GPGSA,A,3,27,22,18,14,21,03,06,24,19,,,,2.2,1.1,1.9*3B
$GPRMC,013516.000,A,3221.7335,N,11105.6205,W,63.26,143.41,241013,,,A*4E
$GPGGA,013517.000,3221.7199,N,11105.6083,W,1,09,1.1,645.5,M,-27.6,M,,0000*67
$GPGSA,A,3,27,22,18,14,21,03,06,24,19,,,,2.2,1.1,1.9*3B
$GPRMC,013517.000,A,3221.7199,N,11105.6083,W,62.09,142.98,241013,,,A*4E
